{
      "mairies": [
    { "name": "Mairie de Bourg-en-Bresse", "city": "Bourg-en-Bresse", "lat": 46.2057, "lon": 5.2289, "department": "01 Ain", "level": "communal" },
    { "name": "Mairie de Laon", "city": "Laon", "lat": 49.5638, "lon": 3.6262, "department": "02 Aisne", "level": "communal" },
    { "name": "Mairie de Moulins", "city": "Moulins", "lat": 46.5658, "lon": 3.3323, "department": "03 Allier", "level": "communal" },
    { "name": "Mairie de Digne-les-Bains", "city": "Digne-les-Bains", "lat": 44.0924, "lon": 6.2346, "department": "04 Alpes de Haute Provence", "level": "communal" },
    { "name": "Mairie de Gap", "city": "Gap", "lat": 44.5615, "lon": 6.0792, "department": "05 Hautes Alpes", "level": "communal" },
    { "name": "Mairie de Nice", "city": "Nice", "lat": 43.7009, "lon": 7.2625, "department": "06 Alpes Maritimes", "level": "communal" },
    { "name": "Mairie de Privas", "city": "Privas", "lat": 44.737, "lon": 4.598, "department": "07 Ardèche", "level": "communal" },
    { "name": "Mairie de Charleville-Mézières", "city": "Charleville-Mézières", "lat": 49.7766, "lon": 4.7265, "department": "08 Ardennes", "level": "communal" },
    { "name": "Mairie de Foix", "city": "Foix", "lat": 42.9634, "lon": 1.6083, "department": "09 Ariège", "level": "communal" },
    { "name": "Mairie de Troyes", "city": "Troyes", "lat": 48.2974, "lon": 4.0746, "department": "10 Aube", "level": "communal" },
    { "name": "Mairie de Carcassonne", "city": "Carcassonne", "lat": 43.2104, "lon": 2.3486, "department": "11 Aude", "level": "communal" },
    { "name": "Mairie de Rodez", "city": "Rodez", "lat": 44.3524, "lon": 2.5714, "department": "12 Aveyron", "level": "communal" },
    { "name": "Mairie de Marseille", "city": "Marseille", "lat": 43.2961, "lon": 5.3699, "department": "13 Bouches du Rhône", "level": "communal" },
    { "name": "Mairie de Caen", "city": "Caen", "lat": 49.182, "lon": -0.3705, "department": "14 Calvados", "level": "communal" },
    { "name": "Mairie d'Aurillac", "city": "Aurillac", "lat": 44.9221, "lon": 2.4439, "department": "15 Cantal", "level": "communal" },
    { "name": "Mairie d'Angoulême", "city": "Angoulême", "lat": 45.6486, "lon": 0.156, "department": "16 Charente", "level": "communal" },
    { "name": "Mairie de La Rochelle", "city": "La Rochelle", "lat": 46.1603, "lon": -1.1511, "department": "17 Charente Maritime", "level": "communal" },
    { "name": "Mairie de Bourges", "city": "Bourges", "lat": 47.0842, "lon": 2.3965, "department": "18 Cher", "level": "communal" },
    { "name": "Mairie de Tulle", "city": "Tulle", "lat": 45.2662, "lon": 1.771, "department": "19 Corrèze", "level": "communal" },
    { "name": "Mairie d'Ajaccio", "city": "Ajaccio", "lat": 41.9205, "lon": 8.7397, "department": "2a Corse du Sud", "level": "communal" },
    { "name": "Mairie de Bastia", "city": "Bastia", "lat": 42.7011, "lon": 9.4507, "department": "2b Haute Corse", "level": "communal" },
    { "name": "Mairie de Dijon", "city": "Dijon", "lat": 47.3222, "lon": 5.043, "department": "21 Côte d'Or", "level": "communal" },
    { "name": "Mairie de Saint-Brieuc", "city": "Saint-Brieuc", "lat": 48.5135, "lon": -2.766, "department": "22 Côtes d'Armor", "level": "communal" },
    { "name": "Mairie de Guéret", "city": "Guéret", "lat": 46.1706, "lon": 1.871, "department": "23 Creuse", "level": "communal" },
    { "name": "Mairie de Périgueux", "city": "Périgueux", "lat": 45.1843, "lon": 0.7208, "department": "24 Dordogne", "level": "communal" },
    { "name": "Mairie de Besançon", "city": "Besançon", "lat": 47.2378, "lon": 6.0245, "department": "25 Doubs", "level": "communal" },
    { "name": "Mairie de Valence", "city": "Valence", "lat": 44.9333, "lon": 4.8917, "department": "26 Drôme", "level": "communal" },
    { "name": "Mairie d'Évreux", "city": "Évreux", "lat": 49.0234, "lon": 1.1504, "department": "27 Eure", "level": "communal" },
    { "name": "Mairie de Chartres", "city": "Chartres", "lat": 48.4475, "lon": 1.4883, "department": "28 Eure et Loir", "level": "communal" },
    { "name": "Mairie de Quimper", "city": "Quimper", "lat": 47.9943, "lon": -4.1039, "department": "29 Finistère", "level": "communal" },
    { "name": "Mairie de Nîmes", "city": "Nîmes", "lat": 43.8368, "lon": 4.3601, "department": "30 Gard", "level": "communal" },
    { "name": "Mairie de Toulouse", "city": "Toulouse", "lat": 43.6045, "lon": 1.4442, "department": "31 Haute Garonne", "level": "communal" },
    { "name": "Mairie d'Auch", "city": "Auch", "lat": 43.6465, "lon": 0.5853, "department": "32 Gers", "level": "communal" },
    { "name": "Mairie de Bordeaux", "city": "Bordeaux", "lat": 44.8378, "lon": -0.5792, "department": "33 Gironde", "level": "communal" },
    { "name": "Mairie de Montpellier", "city": "Montpellier", "lat": 43.6108, "lon": 3.8767, "department": "34 Hérault", "level": "communal" },
    { "name": "Mairie de Rennes", "city": "Rennes", "lat": 48.1173, "lon": -1.6778, "department": "35 Ille et Vilaine", "level": "communal" },
    { "name": "Mairie de Châteauroux", "city": "Châteauroux", "lat": 46.8066, "lon": 1.6917, "department": "36 Indre", "level": "communal" },
    { "name": "Mairie de Tours", "city": "Tours", "lat": 47.3941, "lon": 0.6848, "department": "37 Indre et Loire", "level": "communal" },
    { "name": "Mairie de Grenoble", "city": "Grenoble", "lat": 45.1885, "lon": 5.7245, "department": "38 Isère", "level": "communal" },
    { "name": "Mairie de Lons-le-Saunier", "city": "Lons-le-Saunier", "lat": 46.6713, "lon": 5.556, "department": "39 Jura", "level": "communal" },
    { "name": "Mairie de Mont-de-Marsan", "city": "Mont-de-Marsan", "lat": 43.891, "lon": -0.5005, "department": "40 Landes", "level": "communal" },
    { "name": "Mairie de Blois", "city": "Blois", "lat": 47.585, "lon": 1.332, "department": "41 Loir et Cher", "level": "communal" },
    { "name": "Mairie de Saint-Étienne", "city": "Saint-Étienne", "lat": 45.4397, "lon": 4.3872, "department": "42 Loire", "level": "communal" },
    { "name": "Mairie de Le Puy-en-Velay", "city": "Le Puy-en-Velay", "lat": 45.0433, "lon": 3.8852, "department": "43 Haute Loire", "level": "communal" },
    { "name": "Mairie de Nantes", "city": "Nantes", "lat": 47.2186, "lon": -1.5541, "department": "44 Loire Atlantique", "level": "communal" },
    { "name": "Mairie d'Orléans", "city": "Orléans", "lat": 47.9029, "lon": 1.909, "department": "45 Loiret", "level": "communal" },
    { "name": "Mairie de Cahors", "city": "Cahors", "lat": 44.4475, "lon": 1.442, "department": "46 Lot", "level": "communal" },
    { "name": "Mairie d'Agen", "city": "Agen", "lat": 44.2045, "lon": 0.6133, "department": "47 Lot et Garonne", "level": "communal" },
    { "name": "Mairie de Mende", "city": "Mende", "lat": 44.5167, "lon": 3.5, "department": "48 Lozère", "level": "communal" },
    { "name": "Mairie d'Angers", "city": "Angers", "lat": 47.4784, "lon": -0.5632, "department": "49 Maine et Loire", "level": "communal" },
    { "name": "Mairie de Saint-Lô", "city": "Saint-Lô", "lat": 49.1171, "lon": -1.087, "department": "50 Manche", "level": "communal" },
    { "name": "Mairie de Châlons-en-Champagne", "city": "Châlons-en-Champagne", "lat": 48.9567, "lon": 4.3725, "department": "51 Marne", "level": "communal" },
    { "name": "Mairie de Chaumont", "city": "Chaumont", "lat": 48.107, "lon": 5.136, "department": "52 Haute Marne", "level": "communal" },
    { "name": "Mairie de Laval", "city": "Laval", "lat": 48.0706, "lon": -0.7725, "department": "53 Mayenne", "level": "communal" },
    { "name": "Mairie de Nancy", "city": "Nancy", "lat": 48.6936, "lon": 6.1843, "department": "54 Meurthe et Moselle", "level": "communal" },
    { "name": "Mairie de Bar-le-Duc", "city": "Bar-le-Duc", "lat": 48.7714, "lon": 5.1633, "department": "55 Meuse", "level": "communal" },
    { "name": "Mairie de Vannes", "city": "Vannes", "lat": 47.6586, "lon": -2.7603, "department": "56 Morbihan", "level": "communal" },
    { "name": "Mairie de Metz", "city": "Metz", "lat": 49.1193, "lon": 6.175, "department": "57 Moselle", "level": "communal" },
    { "name": "Mairie de Nevers", "city": "Nevers", "lat": 46.992, "lon": 3.161, "department": "58 Nièvre", "level": "communal" },
    { "name": "Mairie de Lille", "city": "Lille", "lat": 50.6292, "lon": 3.0573, "department": "59 Nord", "level": "communal" },
    { "name": "Mairie de Beauvais", "city": "Beauvais", "lat": 49.4316, "lon": 2.0945, "department": "60 Oise", "level": "communal" },
    { "name": "Mairie d'Alençon", "city": "Alençon", "lat": 48.431, "lon": 0.091, "department": "61 Orne", "level": "communal" },
    { "name": "Mairie d'Arras", "city": "Arras", "lat": 50.2926, "lon": 2.7825, "department": "62 Pas de Calais", "level": "communal" },
    { "name": "Mairie de Clermont-Ferrand", "city": "Clermont-Ferrand", "lat": 45.7772, "lon": 3.087, "department": "63 Puy de Dôme", "level": "communal" },
    { "name": "Mairie de Pau", "city": "Pau", "lat": 43.3006, "lon": -0.3662, "department": "64 Pyrénées Atlantiques", "level": "communal" },
    { "name": "Mairie de Tarbes", "city": "Tarbes", "lat": 43.2323, "lon": 0.0768, "department": "65 Hautes Pyrénées", "level": "communal" },
    { "name": "Mairie de Perpignan", "city": "Perpignan", "lat": 42.6888, "lon": 2.8948, "department": "66 Pyrénées Orientales", "level": "communal" },
    { "name": "Mairie de Strasbourg", "city": "Strasbourg", "lat": 48.5839, "lon": 7.7455, "department": "67 Bas Rhin", "level": "communal" },
    { "name": "Mairie de Colmar", "city": "Colmar", "lat": 48.0792, "lon": 7.3592, "department": "68 Haut Rhin", "level": "communal" },
    { "name": "Mairie de Lyon", "city": "Lyon", "lat": 45.764, "lon": 4.8357, "department": "69 Rhône", "level": "communal" },
    { "name": "Mairie de Vesoul", "city": "Vesoul", "lat": 47.625, "lon": 6.155, "department": "70 Haute Saône", "level": "communal" },
    { "name": "Mairie de Mâcon", "city": "Mâcon", "lat": 46.306, "lon": 4.832, "department": "71 Saône et Loire", "level": "communal" },
    { "name": "Mairie de Le Mans", "city": "Le Mans", "lat": 48.0077, "lon": 0.1983, "department": "72 Sarthe", "level": "communal" },
    { "name": "Mairie de Chambéry", "city": "Chambéry", "lat": 45.5645, "lon": 5.9178, "department": "73 Savoie", "level": "communal" },
    { "name": "Mairie d'Annecy", "city": "Annecy", "lat": 45.8992, "lon": 6.1294, "department": "74 Haute Savoie", "level": "communal" },
    { "name": "Mairie de Paris", "city": "Paris", "lat": 48.8566, "lon": 2.3522, "department": "75 Paris", "level": "communal" },
    { "name": "Mairie de Rouen", "city": "Rouen", "lat": 49.4432, "lon": 1.0994, "department": "76 Seine Maritime", "level": "communal" },
    { "name": "Mairie de Melun", "city": "Melun", "lat": 48.539, "lon": 2.654, "department": "77 Seine et Marne", "level": "communal" },
    { "name": "Mairie de Versailles", "city": "Versailles", "lat": 48.8014, "lon": 2.1301, "department": "78 Yvelines", "level": "communal" },
    { "name": "Mairie de Niort", "city": "Niort", "lat": 46.3243, "lon": -0.4632, "department": "79 Deux Sèvres", "level": "communal" },
    { "name": "Mairie d'Amiens", "city": "Amiens", "lat": 49.8941, "lon": 2.2958, "department": "80 Somme", "level": "communal" },
    { "name": "Mairie d'Albi", "city": "Albi", "lat": 43.9298, "lon": 2.1432, "department": "81 Tarn", "level": "communal" },
    { "name": "Mairie de Montauban", "city": "Montauban", "lat": 44.0175, "lon": 1.355, "department": "82 Tarn et Garonne", "level": "communal" },
    { "name": "Mairie de Toulon", "city": "Toulon", "lat": 43.1242, "lon": 5.928, "department": "83 Var", "level": "communal" },
    { "name": "Mairie d'Avignon", "city": "Avignon", "lat": 43.9493, "lon": 4.806, "department": "84 Vaucluse", "level": "communal" },
    { "name": "Mairie de La Roche-sur-Yon", "city": "La Roche-sur-Yon", "lat": 46.6713, "lon": -1.426, "department": "85 Vendée", "level": "communal" },
    { "name": "Mairie de Poitiers", "city": "Poitiers", "lat": 46.5869, "lon": 0.3664, "department": "86 Vienne", "level": "communal" },
    { "name": "Mairie de Limoges", "city": "Limoges", "lat": 45.8336, "lon": 1.2611, "department": "87 Haute Vienne", "level": "communal" },
    { "name": "Mairie d'Épinal", "city": "Épinal", "lat": 48.175, "lon": 6.447, "department": "88 Vosges", "level": "communal" },
    { "name": "Mairie d'Auxerre", "city": "Auxerre", "lat": 47.7885, "lon": 3.568, "department": "89 Yonne", "level": "communal" },
    { "name": "Mairie de Belfort", "city": "Belfort", "lat": 47.6406, "lon": 6.8632, "department": "90 Territoire de Belfort", "level": "communal" },
    { "name": "Mairie d'Évry", "city": "Évry", "lat": 48.6299, "lon": 2.4278, "department": "91 Essonne", "level": "communal" },
    { "name": "Mairie de Nanterre", "city": "Nanterre", "lat": 48.892, "lon": 2.208, "department": "92 Hauts de Seine", "level": "communal" },
    { "name": "Mairie de Bobigny", "city": "Bobigny", "lat": 48.909, "lon": 2.445, "department": "93 Seine Saint Denis", "level": "communal" },
    { "name": "Mairie de Créteil", "city": "Créteil", "lat": 48.796, "lon": 2.45, "department": "94 Val de Marne", "level": "communal" },
    { "name": "Mairie de Cergy", "city": "Cergy", "lat": 49.035, "lon": 2.071, "department": "95 Val d'Oise", "level": "communal" },
    { "name": "Mairie de Basse-Terre", "city": "Basse-Terre", "lat": 16.002, "lon": -61.705, "department": "971 Guadeloupe", "level": "communal" },
    { "name": "Mairie de Fort-de-France", "city": "Fort-de-France", "lat": 14.608, "lon": -61.073, "department": "972 Martinique", "level": "communal" },
    { "name": "Mairie de Cayenne", "city": "Cayenne", "lat": 4.935, "lon": -52.333, "department": "973 Guyane", "level": "communal" },
    { "name": "Mairie de Saint-Denis", "city": "Saint-Denis", "lat": -20.882, "lon": 55.45, "department": "974 La réunion", "level": "communal" },
    { "name": "Mairie de Saint-Pierre", "city": "Saint-Pierre", "lat": 46.786, "lon": -56.177, "department": "975 Saint Pierre et Miquelon", "level": "communal" },
    { "name": "Mairie de Mamoudzou", "city": "Mamoudzou", "lat": -12.78, "lon": 45.22, "department": "976 Mayotte", "level": "communal" },
    { "name": "Mairie de Gustavia", "city": "Gustavia", "lat": 17.895, "lon": -62.84, "department": "977 Saint Barthelemy", "level": "communal" },
    { "name": "Mairie de Marigot", "city": "Marigot", "lat": 18.067, "lon": -63.085, "department": "978 Saint Martin", "level": "communal" }
  ]
}