{
  "financial_flows": [],
  "affaires": { "id": "missios = plan de campgne"},
  "chronology": [
    {
      "id": "1",
      "title": "Loi du Plomb",
      "subtitle": "Du 8 JUILLET",
      "description": "Lancement de la loi DUMPLOMB.",
      "start_date": "2025-07-08T00:00:00Z",
      "end_date": "2025-07-08T23:59:59Z"
    },
    {
      "id": "2",
      "title": "Strat√©gie de boycottage",
      "subtitle": "Du 14 ao√ªt",
      "description": "Nous d√©veloppons et mettons en ≈ìuvre la strat√©gie de boycottage et de financement de la caisse de manifestation. Des actions de sensibilisation seront men√©es pour mobiliser un maximum de citoyens.",
      "start_date": "2025-08-14T00:00:00Z",
      "end_date": "2025-08-14T23:59:59Z"
    },
    {
      "id": "3",
      "title": "Journ√©e de la D√©mocratie",
      "subtitle": "Le 30 Aout",
      "description": "Journ√©e de la D√©mocratie Assembl√©e G√©n√©rale. Type : AG.",
      "start_date": "2025-08-30T00:00:00Z",
      "end_date": "2025-08-30T23:59:59Z"
    },
    {
      "id": "4",
      "title": "Socle d√©mocratique : MAIRIE",
      "subtitle": "Le 8 septembre",
      "description": "Bye, bail > BAYROUX. L'objectif est d'√©tablir un socle d√©mocratique au niveau local.",
      "start_date": "2025-09-08T00:00:00Z",
      "end_date": "2025-09-08T23:59:59Z"
    },
    {
      "id": "5",
      "title": "Journ√©e de Manifestation",
      "subtitle": "Le 10 septembre",
      "description": "Nous vous invitons √† vous rassembler, √† distribuer de l'argent de la caisse de manifestation et √† √©changer autour d'un restaurant sur les revendications de justice sociale, de destitution et du RIC. C'est un moment pour se r√©approprier l'espace public de mani√®re constructive.",
      "start_date": "2025-09-10T00:00:00Z",
      "end_date": "2025-09-10T23:59:59Z"
    },
    {
      "id": "6",
      "title": "Gr√®ve G√©n√©rale",
      "subtitle": "Le 18 septembre",
      "description": "Nous vous invitons √† vous rassembler, √† distribuer de l'argent de la caisse de manifestation et √† √©changer autour d'un restaurant sur les revendications de justice sociale, de destitution et du RIC. C'est un moment pour se r√©approprier l'espace public de mani√®re constructive.",
      "start_date": "2025-09-18T00:00:00Z",
      "end_date": "2025-09-18T23:59:59Z"
    }
  ],
  "petitions": [
      {
        "id": "i-2743",
        "title": "Destitution du Pr√©sident de la R√©publique",
        "url": "https://petitions.assemblee-nationale.fr/initiatives/i-2743",
        "description": "Demande de destitution en vertu de l'article 68 de la Constitution, pour violation des principes d√©mocratiques.",
        "author": "Thibaud MAGNIEZ",
        "date": "28/04/2025"
      },
      {
        "id": "i-3014",
        "title": "Abrogation de la loi Duplomb",
        "url": "https://petitions.assemblee-nationale.fr/initiatives/i-3014",
        "description": "Non √† la Loi Duplomb ‚Äî Pour la sant√©, la s√©curit√©, l‚Äôintelligence collective.",
        "author": "Eleonore PATTERY",
        "date": "12/02/2025"
      }
  ],
  "media_sources": [
    {
      "platform": "YouTube",
      "channel": "Canard R√©fractaire",
      "title": "Le 10 SEPTEMBRE, C'√âTAIT √áA! üí• (Les actions partout en France!)",
      "url": "https://www.youtube.com/watch?v=5FZqRpcMRuk",
      "views": 37623,
      "likes": 7906,
      "date_published": "2025-09-10"
    }
  ],
  "rics": [],
  "taxes": [
    {
      "id": "tax_tfa",
      "name": "Taxe sur les Transactions Financi√®res (TFA)",
      "description": "Taxe sur les flux financiers et les mouvements de capitaux.",
      "rate": 0.2,
      "applicable_to": "financial_flows"
    },
    {
      "id": "tax_production",
      "name": "Taxe sur les Facteurs de Production",
      "description": "Taxe bas√©e sur les co√ªts de production des entreprises.",
      "rate": 0.05,
      "applicable_to": "company_data"
    },
    {
      "id": "tax_vat",
      "name": "Taxe sur la Valeur Ajout√©e",
      "description": "Mod√©lisation de l'impact de la TVA sur les transactions.",
      "rate": 0.2,
      "applicable_to": "transactions"
    },
    {
      "id": "tax_campaign",
      "name": "Taxe sur les Exc√©dents de Comptes de Campagne",
      "description": "Taxe sur les exc√©dents de financement des partis politiques, d'apr√®s les donn√©es de la CNCCFP.FR.",
      "rate": 0.5,
      "applicable_to": "campaign_finance"
    }
  ],
  "boycotts": [
    {
      "id": "b_movie_1",
      "type": "movie",
      "name": "Film 'Le Tra√Ætre' de Dupont",
      "reason": "Promotion de politiques toxiques par le r√©alisateur.",
      "tax_id": "tax_vat",
      "locations": [
        { "name": "Cin√©ma Path√©-Gaumont", "city": "Paris", "lat": 48.868, "lon": 2.348, "level": "communal", "type": "Artisanat" }
      ]
    },
    { "id": "ent_boulangerie", "name": "Boulangerie", "type": "Distribution", "description": "R√©seau de boulangeries mentionn√© dans l'enqu√™te.", "tax_id": "tax_vat", "locations": [{"city": "Paris", "lat": 48.868, "lon": 2.348, "level": "communal"}] },
    { "id": "ent_leclerc", "name": "Leclerc", "type": "Distribution", "description": "Cha√Æne de supermarch√©s mentionn√©e dans l'enqu√™te.", "tax_id": "tax_vat", "locations": [{ "city": "Paris", "lat": 48.86, "lon": 2.35, "level": "communal" }, { "city": "Marseille", "lat": 43.29, "lon": 5.37, "level": "communal" }, { "city": "Strasbourg", "lat": 48.58, "lon": 7.75, "level": "communal" }, { "city": "Lille", "lat": 50.63, "lon": 3.06, "level": "communal" }] },
    {
      "id": "ent_carrefour",
      "name": "Carrefour",
      "type": "Distribution",
      "description": "Cha√Æne de supermarch√©s mentionn√©e dans l'enqu√™te.",
      "tax_id": "tax_vat",
      "locations": [
        { "city": "Lyon", "lat": 45.76, "lon": 4.83, "level": "communal" },
        { "city": "Toulouse", "lat": 43.60, "lon": 1.44, "level": "communal" },
        { "city": "Bordeaux", "lat": 44.83, "lon": -0.57, "level": "communal" },
        { "city": "Nice", "lat": 43.71, "lon": 7.26, "level": "communal" },
        { "city": "H√©rouville-Saint-Clair", "lat": 49.20753, "lon": -0.32958, "level": "communal" }
      ]
    },
    { "id": "ent_intermarche", "name": "Intermarch√©", "type": "Distribution", "description": "Cha√Æne de supermarch√©s mentionn√©e dans l'enqu√™te.", "tax_id": "tax_vat", "locations": [{ "city": "Nantes", "lat": 47.21, "lon": -1.55, "level": "communal" }, { "city": "Rennes", "lat": 48.11, "lon": -1.67, "level": "communal" }] },
    { "id": "ent_super_u", "name": "Super U", "type": "Distribution", "description": "Cha√Æne de supermarch√©s mentionn√©e dans l'enqu√™te.", "tax_id": "tax_vat", "locations": [{ "city": "Angers", "lat": 47.47, "lon": -0.55, "level": "communal" }] },
    { "id": "ent_auchan", "name": "Auchan", "type": "Distribution", "description": "Cha√Æne de supermarch√©s mentionn√©e dans l'enqu√™te.", "tax_id": "tax_vat", "locations": [{ "city": "Villeneuve-d'Ascq", "lat": 50.61, "lon": 3.13, "level": "communal" }] },
    { "id": "ent_lidl", "name": "Lidl", "type": "Distribution", "description": "Cha√Æne de supermarch√©s mentionn√©e dans l'enqu√™te.", "tax_id": "tax_vat", "locations": [{ "city": "Paris", "lat": 48.87, "lon": 2.37, "level": "communal" }] },
    { "id": "ent_aldi", "name": "Aldi", "type": "Distribution", "description": "Cha√Æne de supermarch√©s mentionn√©e dans l'enqu√™te.", "tax_id": "tax_vat", "locations": [{ "city": "Marseille", "lat": 43.32, "lon": 5.41, "level": "communal" }] },
    { "id": "ent_monoprix", "name": "Monoprix", "type": "Distribution", "description": "Cha√Æne de supermarch√©s mentionn√©e dans l'enqu√™te.", "tax_id": "tax_vat", "locations": [{"city": "Lyon", "lat": 45.76, "lon": 4.83, "level": "communal"}] },
    { "id": "ent_proxy_cocci_market", "name": "Proxy/Cocci-MARKET", "type": "Distribution", "description": "R√©seaux de magasins de proximit√© mentionn√©s dans l'enqu√™te.", "tax_id": "tax_vat", "locations": [{"city": "Toulouse", "lat": 43.60, "lon": 1.44, "level": "communal"}] },
    { "id": "ent_total", "name": "Total", "type": "Industrie", "description": "Entreprise p√©troli√®re et stations-service mentionn√©e dans l'enqu√™te.", "tax_id": "tax_vat", "locations": [{ "city": "Le Havre", "lat": 49.49, "lon": 0.10, "level": "communal" }, { "city": "Rouen", "lat": 49.44, "lon": 1.09, "level": "communal" }] },
    { "id": "ent_hsbc", "name": "HSBC", "type": "Banque", "description": "Banque internationale mentionn√©e dans l'enqu√™te.", "tax_id": "tax_tfa", "locations": [{ "city": "Paris", "lat": 48.8724, "lon": 2.3275, "level": "communal" }] },
    { "id": "ent_societe_generale", "name": "Soci√©t√© G√©n√©rale", "type": "Banque", "description": "Banque commerciale mentionn√©e dans l'enqu√™te.", "tax_id": "tax_tfa", "locations": [{ "city": "Paris", "lat": 48.878, "lon": 2.308, "level": "communal" }] },
    {
      "id": "ent_credit_cooperatif",
      "name": "Cr√©dit Coop√©ratif",
      "type": "Banque",
      "description": "Banque √©thique mentionn√©e dans l'enqu√™te.",
      "tax_id": "tax_tfa",
      "locations": [
        { "city": "Bordeaux", "lat": 44.83, "lon": -0.57, "level": "communal" },
        { "city": "Caen", "lat": 49.1825, "lon": -0.3601, "level": "communal" }
      ]
    },
    {
      "id": "ent_banque_de_france",
      "name": "Banque de France",
      "type": "Banque",
      "description": "Si√®ge social de la Banque de France, (finance).",
      "tax_id": "tax_campaign",
      "locations": [
        { "city": "Paris", "lat": 48.8635588, "lon": 2.3397514, "level": "national" },
        { "city": "Caen", "lat": 49.183049, "lon": -0.354784, "level": "communal" }
      ]
    },
    { "id": "ent_credit_agricole", "name": "Cr√©dit Agricole", "type": "Banque", "description": "Banque commerciale mentionn√©e dans l'enqu√™te.", "tax_id": "tax_tfa", "locations": [{ "city": "Paris", "lat": 48.88, "lon": 2.30, "level": "communal" }] },
    { "id": "ent_la_poste", "name": "La Poste", "type": "Banque", "description": "Banque mentionn√©e dans l'enqu√™te.", "tax_id": "tax_tfa", "locations": [{"city": "Strasbourg", "lat": 48.586, "lon": 7.757, "level": "communal"}] },
    { "id": "ent_credit_lyonnais", "name": "Cr√©dit Lyonnais", "type": "Banque", "description": "Banque historique mentionn√©e dans l'enqu√™te.", "tax_id": "tax_tfa", "locations": [{"city": "Nantes", "lat": 47.21, "lon": -1.55, "level": "communal"}] },
    { "id": "ent_credit_mutuel", "name": "Cr√©dit Mutuel", "type": "Banque", "description": "Banque mutualiste mentionn√©e dans l'enqu√™te.", "tax_id": "tax_tfa", "locations": [{"city": "Rennes", "lat": 48.11, "lon": -1.67, "level": "communal"}] },
    { "id": "ent_cic", "name": "CIC", "type": "Banque", "description": "Banque mentionn√©e dans l'enqu√™te.", "tax_id": "tax_tfa", "locations": [{ "city": "Paris", "lat": 48.8757, "lon": 2.3364, "level": "communal" }] },
    { "id": "ent_europafi", "name": "EUROPAFI", "type": "Holding Financi√®re", "description": "Holding de banques europ√©ennes mentionn√©e dans l'enqu√™te. Ses filiales sont situ√©es dans plusieurs villes cl√©s.", "tax_id": "tax_tfa", "locations": [{ "city": "Gateshead", "country": "Royaume-Uni", "country_code": "GB", "lat": 54.9583, "lon": -1.6033, "level": "europe" }, { "city": "Dublin", "country": "Irlande", "country_code": "IE", "lat": 53.3498, "lon": -6.2603, "level": "europe" }, { "city": "Loughton", "country": "Royaume-Uni", "country_code": "GB", "lat": 51.6500, "lon": 0.0600, "level": "europe" }, { "city": "Haarlem", "country": "Pays-Bas", "country_code": "NL", "lat": 52.3874, "lon": 4.6462, "level": "europe" }, { "city": "Bruxelles", "country": "Belgique", "country_code": "BE", "lat": 50.8503, "lon": 4.3517, "level": "europe" }, { "city": "Berlin", "country": "Allemagne", "country_code": "DE", "lat": 52.5200, "lon": 13.4050, "level": "europe" }, { "city": "Munich", "country": "Allemagne", "country_code": "DE", "lat": 48.1351, "lon": 11.5820, "level": "europe" }, { "city": "Vienne", "country": "Autriche", "country_code": "AT", "lat": 48.2082, "lon": 16.3738, "level": "europe" }, { "city": "Chamali√®res", "country": "France", "country_code": "FR", "lat": 45.7766, "lon": 3.0645, "level": "communal" }, { "city": "Rome", "country": "Italie", "country_code": "IT", "lat": 41.9028, "lon": 12.4964, "level": "europe" }, { "city": "Madrid", "country": "Espagne", "country_code": "ES", "lat": 40.4168, "lon": -3.7038, "level": "europe" }, { "city": "Carregado", "country": "Portugal", "country_code": "PT", "lat": 39.0494, "lon": -8.9950, "level": "europe" }, { "city": "Varsovie", "country": "Pologne", "country_code": "PL", "lat": 52.2297, "lon": 21.0122, "level": "europe" }, { "city": "Sofia", "country": "Bulgarie", "country_code": "BG", "lat": 42.6977, "lon": 23.3219, "level": "europe" }, { "city": "Ath√®nes", "country": "Gr√®ce", "country_code": "GR", "lat": 37.9838, "lon": 23.7275, "level": "europe" }] },
    {
      "id": "ent_mcdonalds_champs_elysees",
      "name": "McDonald's",
      "type": "Restauration Rapide",
      "description": "Cha√Æne de restauration rapide mentionn√©e dans l'enqu√™te.",
      "tax_id": "tax_vat",
      "locations": [
        { "city": "Paris", "name": "Champs-√âlys√©es", "lat": 48.867854, "lon": 2.281098, "level": "communal" }
      ]
    }
  ],
  "entities": [],
  "prefectures": [
    { "department": "01 Ain", "city": "Bourg-en-Bresse", "lat": 46.2057, "lon": 5.2289, "type": "Pr√©fecture", "level": "departmental" },
    { "department": "02 Aisne", "city": "Laon", "lat": 49.5638, "lon": 3.6262, "type": "Pr√©fecture", "level": "departmental" },
    { "department": "03 Allier", "city": "Moulins", "lat": 46.5658, "lon": 3.3323, "type": "Pr√©fecture", "level": "departmental" },
    { "department": "04 Alpes de Haute Provence", "city": "Digne-les-Bains", "lat": 44.0924, "lon": 6.2346, "type": "Pr√©fecture", "level": "departmental" },
    { "department": "05 Hautes Alpes", "city": "Gap", "lat": 44.5615, "lon": 6.0792, "type": "Pr√©fecture", "level": "departmental" },
    { "department": "06 Alpes Maritimes", "city": "Nice", "lat": 43.7009, "lon": 7.2625, "type": "Pr√©fecture", "level": "departmental" },
    { "department": "07 Ard√®che", "city": "Privas", "lat": 44.737, "lon": 4.598, "type": "Pr√©fecture", "level": "departmental" },
    { "department": "08 Ardennes", "city": "Charleville-M√©zi√®res", "lat": 49.7766, "lon": 4.7265, "type": "Pr√©fecture", "level": "departmental" },
    { "department": "09 Ari√®ge", "city": "Foix", "lat": 42.9634, "lon": 1.6083, "type": "Pr√©fecture", "level": "departmental" },
    { "department": "10 Aube", "city": "Troyes", "lat": 48.2974, "lon": 4.0746, "type": "Pr√©fecture", "level": "departmental" },
    { "department": "11 Aude", "city": "Carcassonne", "lat": 43.2104, "lon": 2.3486, "type": "Pr√©fecture", "level": "departmental" },
    { "department": "12 Aveyron", "city": "Rodez", "lat": 44.3524, "lon": 2.5714, "type": "Pr√©fecture", "level": "departmental" },
    { "department": "13 Bouches du Rh√¥ne", "city": "Marseille", "lat": 43.2961, "lon": 5.3699, "type": "Pr√©fecture", "level": "departmental" },
    { "department": "14 Calvados", "city": "Caen", "lat": 49.182, "lon": -0.3705, "type": "Pr√©fecture", "level": "departmental" },
    { "department": "15 Cantal", "city": "Aurillac", "lat": 44.9221, "lon": 2.4439, "type": "Pr√©fecture", "level": "departmental" },
    { "department": "16 Charente", "city": "Angoul√™me", "lat": 45.6486, "lon": 0.156, "type": "Pr√©fecture", "level": "departmental" },
    { "department": "17 Charente Maritime", "city": "La Rochelle", "lat": 46.1603, "lon": -1.1511, "type": "Pr√©fecture", "level": "departmental" },
    { "department": "18 Cher", "city": "Bourges", "lat": 47.0842, "lon": 2.3965, "type": "Pr√©fecture", "level": "departmental" },
    { "department": "19 Corr√®ze", "city": "Tulle", "lat": 45.2662, "lon": 1.7712, "type": "Pr√©fecture", "level": "departmental" },
    { "department": "2a Corse du Sud", "city": "Ajaccio", "lat": 41.9205, "lon": 8.7397, "type": "Pr√©fecture", "level": "departmental" },
    { "department": "2b Haute Corse", "city": "Bastia", "lat": 42.7011, "lon": 9.4507, "type": "Pr√©fecture", "level": "departmental" },
    { "department": "21 C√¥te d'Or", "city": "Dijon", "lat": 47.3222, "lon": 5.043, "type": "Pr√©fecture", "level": "departmental" },
    { "department": "22 C√¥tes d'Armor", "city": "Saint-Brieuc", "lat": 48.5135, "lon": -2.766, "type": "Pr√©fecture", "level": "departmental" },
    { "department": "23 Creuse", "city": "Gu√©ret", "lat": 46.1706, "lon": 1.871, "type": "Pr√©fecture", "level": "departmental" },
    { "department": "24 Dordogne", "city": "P√©rigueux", "lat": 45.1843, "lon": 0.7208, "type": "Pr√©fecture", "level": "departmental" },
    { "department": "25 Doubs", "city": "Besan√ßon", "lat": 47.2378, "lon": 6.0245, "type": "Pr√©fecture", "level": "departmental" },
    { "department": "26 Dr√¥me", "city": "Valence", "lat": 44.9333, "lon": 4.8917, "type": "Pr√©fecture", "level": "departmental" },
    { "department": "27 Eure", "city": "√âvreux", "lat": 49.0234, "lon": 1.1504, "type": "Pr√©fecture", "level": "departmental" },
    { "department": "28 Eure et Loir", "city": "Chartres", "lat": 48.4475, "lon": 1.4883, "type": "Pr√©fecture", "level": "departmental" },
    { "department": "29 Finist√®re", "city": "Quimper", "lat": 47.9943, "lon": -4.1039, "type": "Pr√©fecture", "level": "departmental" },
    { "department": "30 Gard", "city": "N√Æmes", "lat": 43.8368, "lon": 4.3601, "type": "Pr√©fecture", "level": "departmental" },
    { "department": "31 Haute Garonne", "city": "Toulouse", "lat": 43.6045, "lon": 1.4442, "type": "Pr√©fecture", "level": "departmental" },
    { "department": "32 Gers", "city": "Auch", "lat": 43.6465, "lon": 0.5853, "type": "Pr√©fecture", "level": "departmental" },
    { "department": "33 Gironde", "city": "Bordeaux", "lat": 44.8378, "lon": -0.5792, "type": "Pr√©fecture", "level": "departmental" },
    { "department": "34 H√©rault", "city": "Montpellier", "lat": 43.6108, "lon": 3.8767, "type": "Pr√©fecture", "level": "departmental" },
    { "department": "35 Ille et Vilaine", "city": "Rennes", "lat": 48.1173, "lon": -1.6778, "type": "Pr√©fecture", "level": "departmental" },
    { "department": "36 Indre", "city": "Ch√¢teauroux", "lat": 46.8066, "lon": 1.6917, "type": "Pr√©fecture", "level": "departmental" },
    { "department": "37 Indre et Loire", "city": "Tours", "lat": 47.3941, "lon": 0.6848, "type": "Pr√©fecture", "level": "departmental" },
    { "department": "38 Is√®re", "city": "Grenoble", "lat": 45.1885, "lon": 5.7245, "type": "Pr√©fecture", "level": "departmental" },
    { "department": "39 Jura", "city": "Lons-le-Saunier", "lat": 46.6713, "lon": 5.556, "type": "Pr√©fecture", "level": "departmental" },
    { "department": "40 Landes", "city": "Mont-de-Marsan", "lat": 43.891, "lon": -0.5005, "type": "Pr√©fecture", "level": "departmental" },
    { "department": "41 Loir et Cher", "city": "Blois", "lat": 47.585, "lon": 1.332, "type": "Pr√©fecture", "level": "departmental" },
    { "department": "42 Loire", "city": "Saint-√âtienne", "lat": 45.4397, "lon": 4.3872, "type": "Pr√©fecture", "level": "departmental" },
    { "department": "43 Haute Loire", "city": "Le Puy-en-Velay", "lat": 45.0433, "lon": 3.8852, "type": "Pr√©fecture", "level": "departmental" },
    { "department": "44 Loire Atlantique", "city": "Nantes", "lat": 47.2186, "lon": -1.5541, "type": "Pr√©fecture", "level": "departmental" },
    { "department": "45 Loiret", "city": "Orl√©ans", "lat": 47.9029, "lon": 1.909, "type": "Pr√©fecture", "level": "departmental" },
    { "department": "46 Lot", "city": "Cahors", "lat": 44.4475, "lon": 1.442, "type": "Pr√©fecture", "level": "departmental" },
    { "department": "47 Lot et Garonne", "city": "Agen", "lat": 44.2045, "lon": 0.6133, "type": "Pr√©fecture", "level": "departmental" },
    { "department": "48 Loz√®re", "city": "Mende", "lat": 44.5167, "lon": 3.5, "type": "Pr√©fecture", "level": "departmental" },
    { "department": "49 Maine et Loire", "city": "Angers", "lat": 47.4784, "lon": -0.5632, "type": "Pr√©fecture", "level": "departmental" },
    { "department": "50 Manche", "city": "Saint-L√¥", "lat": 49.1171, "lon": -1.087, "type": "Pr√©fecture", "level": "departmental" },
    { "department": "51 Marne", "city": "Ch√¢lons-en-Champagne", "lat": 48.9567, "lon": 4.3725, "type": "Pr√©fecture", "level": "departmental" },
    { "department": "52 Haute Marne", "city": "Chaumont", "lat": 48.107, "lon": 5.136, "type": "Pr√©fecture", "level": "departmental" },
    { "department": "53 Mayenne", "city": "Laval", "lat": 48.0706, "lon": -0.7725, "type": "Pr√©fecture", "level": "departmental" },
    { "department": "54 Meurthe et Moselle", "city": "Nancy", "lat": 48.6936, "lon": 6.1843, "type": "Pr√©fecture", "level": "departmental" },
    { "department": "55 Meuse", "city": "Bar-le-Duc", "lat": 48.7714, "lon": 5.1633, "type": "Pr√©fecture", "level": "departmental" },
    { "department": "56 Morbihan", "city": "Vannes", "lat": 47.6586, "lon": -2.7603, "type": "Pr√©fecture", "level": "departmental" },
    { "department": "57 Moselle", "city": "Metz", "lat": 49.1193, "lon": 6.175, "type": "Pr√©fecture", "level": "departmental" },
    { "department": "58 Ni√®vre", "city": "Nevers", "lat": 46.992, "lon": 3.161, "type": "Pr√©fecture", "level": "departmental" },
    { "department": "59 Nord", "city": "Lille", "lat": 50.6292, "lon": 3.0573, "type": "Pr√©fecture", "level": "departmental" },
    { "department": "60 Oise", "city": "Beauvais", "lat": 49.4316, "lon": 2.0945, "type": "Pr√©fecture", "level": "departmental" },
    { "department": "61 Orne", "city": "Alen√ßon", "lat": 48.431, "lon": 0.091, "type": "Pr√©fecture", "level": "departmental" },
    { "department": "62 Pas de Calais", "city": "Arras", "lat": 50.2926, "lon": 2.7825, "type": "Pr√©fecture", "level": "departmental" },
    { "department": "63 Puy de D√¥me", "city": "Clermont-Ferrand", "lat": 45.7772, "lon": 3.087, "type": "Pr√©fecture", "level": "departmental" },
    { "department": "64 Pyr√©n√©es Atlantiques", "city": "Pau", "lat": 43.3006, "lon": -0.3662, "type": "Pr√©fecture", "level": "departmental" },
    { "department": "65 Hautes Pyr√©n√©es", "city": "Tarbes", "lat": 43.2323, "lon": 0.0768, "type": "Pr√©fecture", "level": "departmental" },
    { "department": "66 Pyr√©n√©es Orientales", "city": "Perpignan", "lat": 42.6888, "lon": 2.8948, "type": "Pr√©fecture", "level": "departmental" },
    { "department": "67 Bas Rhin", "city": "Strasbourg", "lat": 48.5839, "lon": 7.7455, "type": "Pr√©fecture", "level": "departmental" },
    { "department": "68 Haut Rhin", "city": "Colmar", "lat": 48.0792, "lon": 7.3592, "type": "Pr√©fecture", "level": "departmental" },
    { "department": "69 Rh√¥ne", "city": "Lyon", "lat": 45.764, "lon": 4.8357, "type": "Pr√©fecture", "level": "departmental" },
    { "department": "70 Haute Sa√¥ne", "city": "Vesoul", "lat": 47.625, "lon": 6.155, "type": "Pr√©fecture", "level": "departmental" },
    { "department": "71 Sa√¥ne et Loire", "city": "M√¢con", "lat": 46.306, "lon": 4.832, "type": "Pr√©fecture", "level": "departmental" },
    { "department": "72 Sarthe", "city": "Le Mans", "lat": 48.0077, "lon": 0.1983, "type": "Pr√©fecture", "level": "departmental" },
    { "department": "73 Savoie", "city": "Chamb√©ry", "lat": 45.5645, "lon": 5.9178, "type": "Pr√©fecture", "level": "departmental" },
    { "department": "74 Haute Savoie", "city": "Annecy", "lat": 45.8992, "lon": 6.1294, "type": "Pr√©fecture", "level": "departmental" },
    { "department": "75 Paris", "city": "Paris", "lat": 48.8566, "lon": 2.3522, "type": "Pr√©fecture", "level": "departmental" },
    { "department": "76 Seine Maritime", "city": "Rouen", "lat": 49.4432, "lon": 1.0994, "type": "Pr√©fecture", "level": "departmental" },
    { "department": "77 Seine et Marne", "city": "Melun", "lat": 48.539, "lon": 2.654, "type": "Pr√©fecture", "level": "departmental" },
    { "department": "78 Yvelines", "city": "Versailles", "lat": 48.8014, "lon": 2.1301, "type": "Pr√©fecture", "level": "departmental" },
    { "department": "79 Deux S√®vres", "city": "Niort", "lat": 46.3243, "lon": -0.4632, "type": "Pr√©fecture", "level": "departmental" },
    { "department": "80 Somme", "city": "Amiens", "lat": 49.8941, "lon": 2.2958, "type": "Pr√©fecture", "level": "departmental" },
    { "department": "81 Tarn", "city": "Albi", "lat": 43.9298, "lon": 2.1432, "type": "Pr√©fecture", "level": "departmental" },
    { "department": "82 Tarn et Garonne", "city": "Montauban", "lat": 44.0175, "lon": 1.355, "type": "Pr√©fecture", "level": "departmental" },
    { "department": "83 Var", "city": "Toulon", "lat": 43.1242, "lon": 5.928, "type": "Pr√©fecture", "level": "departmental" },
    { "department": "84 Vaucluse", "city": "Avignon", "lat": 43.9493, "lon": 4.806, "type": "Pr√©fecture", "level": "departmental" },
    { "department": "85 Vend√©e", "city": "La Roche-sur-Yon", "lat": 46.6713, "lon": -1.426, "type": "Pr√©fecture", "level": "departmental" },
    { "department": "86 Vienne", "city": "Poitiers", "lat": 46.5869, "lon": 0.3664, "type": "Pr√©fecture", "level": "departmental" },
    { "department": "87 Haute Vienne", "city": "Limoges", "lat": 45.8336, "lon": 1.2611, "type": "Pr√©fecture", "level": "departmental" },
    { "department": "88 Vosges", "city": "√âpinal", "lat": 48.175, "lon": 6.447, "type": "Pr√©fecture", "level": "departmental" },
    { "department": "89 Yonne", "city": "Auxerre", "lat": 47.7885, "lon": 3.568, "type": "Pr√©fecture", "level": "departmental" },
    { "department": "90 Territoire de Belfort", "city": "Belfort", "lat": 47.6406, "lon": 6.8632, "type": "Pr√©fecture", "level": "departmental" },
    { "department": "91 Essonne", "city": "√âvry", "lat": 48.6299, "lon": 2.4278, "type": "Pr√©fecture", "level": "departmental" },
    { "department": "92 Hauts de Seine", "city": "Nanterre", "lat": 48.892, "lon": 2.208, "type": "Pr√©fecture", "level": "departmental" },
    { "department": "93 Seine Saint Denis", "city": "Bobigny", "lat": 48.909, "lon": 2.445, "type": "Pr√©fecture", "level": "departmental" },
    { "department": "94 Val de Marne", "city": "Cr√©teil", "lat": 48.796, "lon": 2.450, "type": "Pr√©fecture", "level": "departmental" },
    { "department": "95 Val d'Oise", "city": "Cergy", "lat": 49.035, "lon": 2.071, "type": "Pr√©fecture", "level": "departmental" },
    { "department": "971 Guadeloupe", "city": "Basse-Terre", "lat": 16.002, "lon": -61.705, "type": "Pr√©fecture", "level": "departmental" },
    { "department": "972 Martinique", "city": "Fort-de-France", "lat": 14.608, "lon": -61.073, "type": "Pr√©fecture", "level": "departmental" },
    { "department": "973 Guyane", "city": "Cayenne", "lat": 4.935, "lon": -52.333, "type": "Pr√©fecture", "level": "departmental" },
    { "department": "974 La r√©union", "city": "Saint-Denis", "lat": -20.882, "lon": 55.45, "type": "Pr√©fecture", "level": "departmental" },
    { "department": "975 Saint Pierre et Miquelon", "city": "Saint-Pierre", "lat": 46.786, "lon": -56.177, "type": "Pr√©fecture", "level": "departmental" },
    { "department": "976 Mayotte", "city": "Mamoudzou", "lat": -12.78, "lon": 45.22, "type": "Pr√©fecture", "level": "departmental" },
    { "department": "977 Saint Barthelemy", "city": "Gustavia", "lat": 17.895, "lon": -62.84, "type": "Pr√©fecture", "level": "departmental" },
    { "department": "978 Saint Martin", "city": "Marigot", "lat": 18.067, "lon": -63.085, "type": "Pr√©fecture", "level": "departmental" }
  ],
  "telegram_groups": [
    { "department": "Groupe National Officiel", "city": "National", "name": "Indignons Nous 10 septembre", "link": "https://t.me/+B5CJp-RUGpAzMmQ8", "lat": 46.603354, "lon": 1.888334, "level": "national" },
    { "department": "Groupe National Officiel", "city": "National", "name": "Les Marcheurs", "link": "https://t.me/+tOBgfHnAxpQzMjRk", "lat": 46.611111, "lon": 2.000000, "level": "national" },
    { "department": "MEDIA", "city": "National", "name": "MEDIA", "link": "https://t.me/+SpcUZ9gV9XhjNWY8", "lat": 46.622222, "lon": 2.111111, "level": "national" },
    { "department": "Reseaux Sociaux", "city": "National", "name": "Reseaux Sociaux", "link": "https://t.me/+6hQBLLULx0k4ODVk", "lat": 46.633333, "lon": 2.222222, "level": "national" },
    { "department": "Meres isolees", "city": "National", "name": "Meres isolees", "link": "https://t.me/+ZmYEmp6vPUFjYmY0", "lat": 46.644444, "lon": 2.333333, "level": "national" },
    { "department": "Nourrir le mouvement", "city": "National", "name": "Nourrir le mouvement", "link": "https://t.me/+Lbb4F9zcebYzMzk0", "lat": 46.655555, "lon": 2.444444, "level": "national" },
    { "department": "AUVERGNE RH√îNE ALPES", "city": "Auvergne-Rh√¥ne-Alpes", "name": "Groupe Telegram Auvergne-Rh√¥ne-Alpes", "link": "https://t.me/+2ydXihH_ft43OWI8", "lat": 45.748, "lon": 4.847, "level": "regional" },
    { "department": "01 Ain", "city": "Ain", "name": "Groupe Telegram D√©partement 01", "link": "https://t.me/+ZGgNVBU6mSEwNGQ0", "lat": 46.215, "lon": 5.239, "level": "departmental" },
    { "department": "03 Allier", "city": "Allier", "name": "Groupe Telegram D√©partement 03", "link": "https://t.me/+VFRy-ZfSY6QwY2Rk", "lat": 46.578, "lon": 3.345, "level": "departmental" },
    { "department": "15 Cantal", "city": "Cantal", "name": "Groupe Telegram D√©partement 15", "link": "https://t.me/+aSs9MVDIrDdhYTdk", "lat": 44.935, "lon": 2.457, "level": "departmental" },
    { "department": "26 Dr√¥me/07 Ard√®che", "city": "Dr√¥me/Ard√®che", "name": "Groupe Telegram Dr√¥me/Ard√®che", "link": "https://t.me/+e6HcO3Fq_MViYzZk", "lat": 44.839, "lon": 4.793, "level": "departmental" },
    { "department": "38 Is√®re", "city": "Is√®re", "name": "Groupe Telegram D√©partement 38", "link": "https://t.me/IndignonsnousIsere", "lat": 45.195, "lon": 5.738, "level": "departmental" },
    { "department": "38 Is√®re", "city": "Grenoble", "name": "Groupe Telegram Grenoble", "link": "https://t.me/+OKXn5kHL8-M4NTM0", "lat": 45.198, "lon": 5.729, "level": "communal" },
    { "department": "42 Loire", "city": "Loire", "name": "Groupe Telegram D√©partement 42", "link": "https://t.me/+sU3LLbwW12IwMjBk", "lat": 45.451, "lon": 4.398, "level": "departmental" },
    { "department": "43 Haute Loire", "city": "Haute-Loire", "name": "Groupe Telegram D√©partement 43", "link": "https://t.me/+E27DUVUAQx41NGJk", "lat": 45.056, "lon": 3.897, "level": "departmental" },
    { "department": "63 Puy de D√¥me", "city": "Puy-de-D√¥me", "name": "Groupe Telegram D√©partement 63", "link": "https://t.me/bloquons63", "lat": 45.789, "lon": 3.099, "level": "departmental" },
    { "department": "69 Rh√¥ne", "city": "Rh√¥ne", "name": "Groupe Telegram D√©partement 69", "link": "https://t.me/+wMC00KhgGZI2ZmFk", "lat": 45.774, "lon": 4.846, "level": "departmental" },
    { "department": "69 Rh√¥ne", "city": "Lyon", "name": "Groupe Telegram Lyon", "link": "https://t.me/+SuOiGcRJZoliMDk0", "lat": 45.779, "lon": 4.862, "level": "communal" },
    { "department": "73 Savoie", "city": "Savoie", "name": "Groupe Telegram D√©partement 73", "link": "https://t.me/+p5TyIw3AYqtmOGVk", "lat": 45.578, "lon": 5.928, "level": "departmental" },
    { "department": "74 Haute Savoie", "city": "Haute-Savoie", "name": "Groupe Telegram D√©partement 74", "link": "https://t.me/+g8gK3s_SLZ5mMTU0", "lat": 45.912, "lon": 6.141, "level": "departmental" },
    { "department": "BELGIQUE", "city": "Belgique", "name": "Groupe Telegram Belgique", "link": "https://t.me/+vXyhM9YVjzMyOTJk", "lat": 50.85, "lon": 4.35, "level": "europe" },
    { "department": "BOURGOGNE FRANCHE COMTE", "city": "Bourgogne-Franche-Comt√©", "name": "Groupe Telegram Bourgogne-Franche-Comt√©", "link": "https://t.me/+VMgGJ5vZ9kFhMDRk", "lat": 47.16, "lon": 5.67, "level": "regional" },
    { "department": "25 Doubs", "city": "Doubs", "name": "Groupe Telegram D√©partement 25", "link": "https://t.me/doubs10Sep", "lat": 47.248, "lon": 6.035, "level": "departmental" },
    { "department": "58 Ni√®vre", "city": "Ni√®vre", "name": "Groupe Telegram D√©partement 58", "link": "https://t.me/+qgdxdUtp-xg3OTI0", "lat": 47.005, "lon": 3.172, "level": "departmental" },
    { "department": "71 Sa√¥ne et Loire", "city": "Sa√¥ne-et-Loire", "name": "Groupe Telegram D√©partement 71", "link": "https://t.me/+FAOiwCmuv1dhMDA0", "lat": 46.319, "lon": 4.845, "level": "departmental" },
    { "department": "71 Sa√¥ne et Loire", "city": "Chalon/Le Creusot", "name": "Groupe Telegram Chalon/Le Creusot", "link": "https://t.me/+a3tRDc53UHk0ZTFi", "lat": 46.782, "lon": 4.868, "level": "communal" },
    { "department": "89 Yonne", "city": "Yonne", "name": "Groupe Telegram D√©partement 89", "link": "https://t.me/+iD-DeyFq66FjMzlk", "lat": 47.799, "lon": 3.581, "level": "departmental" },
    { "department": "89 Yonne", "city": "Pays d'Avallon", "name": "Groupe Telegram Pays d'Avallon (89)", "link": "https://t.me/+-jnceFS4skczOGJk", "lat": 47.491, "lon": 3.906, "level": "local" },
    { "department": "BRETAGNE", "city": "Bretagne", "name": "Groupe Telegram Bretagne", "link": "https://t.me/+2zyykrgSNYI4YmQ0", "lat": 48.01, "lon": -2.94, "level": "regional" },
    { "department": "35 Ille et Vilaine", "city": "Ille-et-Vilaine", "name": "Groupe Telegram D√©partement 35", "link": "https://t.me/+Mqrir6Q8w1U4NmVk", "lat": 48.127, "lon": -1.667, "level": "departmental" },
    { "department": "CENTRE VAL DE LOIRE", "city": "Centre-Val de Loire", "name": "Groupe Telegram Centre-Val de Loire", "link": "https://t.me/+jR9bqrSbZVdkM2E8", "lat": 47.58, "lon": 1.76, "level": "regional" },
    { "department": "41 Loir et Cher", "city": "Loir-et-Cher", "name": "Groupe Telegram D√©partement 41", "link": "https://t.me/+7moVpfgguQwyZjJk", "lat": 47.595, "lon": 1.342, "level": "departmental" },
    { "department": "45 Loiret", "city": "Loiret", "name": "Groupe Telegram D√©partement 45", "link": "https://t.me/+Utc-XCqfvSphZjhk", "lat": 47.915, "lon": 1.921, "level": "departmental" },
    { "department": "CORSICA", "city": "Corse", "name": "Groupe Telegram Corse", "link": "https://t.me/+6nGU1MKqF1E1MTI0", "lat": 42.03, "lon": 9.01, "level": "regional" },
    { "department": "ILE DE FRANCE", "city": "√éle-de-France", "name": "Groupe Telegram √éle-de-France", "link": "https://t.me/retlIDF", "lat": 48.8, "lon": 2.3, "level": "regional" },
    { "department": "75 Paris", "city": "Paris", "name": "Groupe Telegram D√©partement 75", "link": "https://t.me/+9gxXN61OSBw4YWRk", "lat": 48.869, "lon": 2.365, "level": "departmental" },
    { "department": "77 Seine et Marne", "city": "Seine-et-Marne", "name": "Groupe Telegram D√©partement 77", "link": "https://t.me/+rkUgIevw6EM3ZDY0", "lat": 48.552, "lon": 2.667, "level": "departmental" },
    { "department": "78 Yvelines", "city": "Yvelines", "name": "Groupe Telegram D√©partement 78", "link": "https://t.me/+q52fTby8owBmNTA0", "lat": 48.814, "lon": 2.143, "level": "departmental" },
    { "department": "91 Essonne", "city": "Essonne", "name": "Groupe Telegram D√©partement 91", "link": "https://t.me/+ZMP8cVktBdQ2YjM0", "lat": 48.643, "lon": 2.441, "level": "departmental" },
    { "department": "92 Hauts de Seine", "city": "Hauts-de-Seine", "name": "Groupe Telegram D√©partement 92", "link": "https://t.me/+iMFbUWAScFw5MzFk", "lat": 48.905, "lon": 2.221, "level": "departmental" },
    { "department": "93 Seine Saint Denis", "city": "Seine-Saint-Denis", "name": "Groupe Telegram D√©partement 93", "link": "https://t.me/+eo1IAGG_uV9lN2Zk", "lat": 48.922, "lon": 2.458, "level": "departmental" },
    { "department": "94 Val de Marne", "city": "Val-de-Marne", "name": "Groupe Telegram D√©partement 94", "link": "https://t.me/+MVVfx3Afj6AzNzFk", "lat": 48.809, "lon": 2.463, "level": "departmental" },
    { "department": "GRAND EST", "city": "Grand-Est", "name": "Groupe Telegram Grand-Est", "link": "https://t.me/+DwayRkLGjxBhYjc0", "lat": 48.78, "lon": 6.45, "level": "regional" },
    { "department": "67 Bas Rhin", "city": "Bas-Rhin", "name": "Groupe Telegram D√©partement 67", "link": "https://link.infini.fr/10sept25basrhin", "lat": 48.597, "lon": 7.758, "level": "departmental" },
    { "department": "68 Haut Rhin", "city": "Haut-Rhin", "name": "Groupe Telegram D√©partement 68", "link": "https://t.me/+dAf_whfVF2s1MGRk", "lat": 48.092, "lon": 7.372, "level": "departmental" },
    { "department": "88 Vosges", "city": "Vosges", "name": "Groupe Telegram D√©partement 88", "link": "https://t.me/+KsMKfMWAJpxhZjFk", "lat": 48.188, "lon": 6.460, "level": "departmental" },
    { "department": "HAUTS DE FRANCE", "city": "Hauts-de-France", "name": "Groupe Telegram Hauts-de-France", "link": "https://t.me/+07fmAOi30jA1ODhk", "lat": 49.9, "lon": 2.8, "level": "regional" },
    { "department": "60 Oise", "city": "Oise", "name": "Groupe Telegram D√©partement 60", "link": "https://t.me/+EIr-ak1256wzZWFk", "lat": 49.444, "lon": 2.107, "level": "departmental" },
    { "department": "NORMANDIE", "city": "Normandie", "name": "Groupe Telegram Normandie", "link": "https://t.me/+NY521X2MIxxhNzQ0", "lat": 49.1, "lon": 0.5, "level": "regional" },
    { "department": "14 Calvados", "city": "Pays Virois", "name": "Groupe Telegram Pays Virois (14)", "link": "https://t.me/+ruRhzuXcrO9iNzI8", "lat": 48.835, "lon": -0.88, "level": "communal" },
    { "department": "76 Seine Maritime", "city": "Le Havre", "name": "Groupe Telegram Le Havre (76)", "link": "https://t.me/+nwEOj3XdQGk5MjQ0", "lat": 49.497, "lon": 0.111, "level": "communal" },
    { "department": "NOUVELLE AQUITAINE", "city": "Nouvelle-Aquitaine", "name": "Groupe Telegram Nouvelle-Aquitaine", "link": "https://t.me/+fFVATyvoOWowZjA0", "lat": 45.1, "lon": 0.5, "level": "regional" },
    { "department": "23 Creuse", "city": "Creuse", "name": "Groupe Telegram Creuse (23)", "link": "https://t.me/+K8iTCXsU-cM0ZWZk", "lat": 46.183, "lon": 1.884, "level": "departmental" },
    { "department": "24 Dordogne", "city": "Dordogne", "name": "Groupe Telegram Dordogne (24)", "link": "https://t.me/+S5lNMsTJ43JhNWE0", "lat": 45.197, "lon": 0.733, "level": "departmental" },
    { "department": "33 Gironde", "city": "Gironde", "name": "Groupe Telegram Gironde (33)", "link": "https://t.me/+qk_X__IUUQphNzY8", "lat": 44.851, "lon": -0.566, "level": "departmental" },
    { "department": "87 Haute Vienne", "city": "Haute-Vienne", "name": "Groupe Telegram Haute-Vienne (87)", "link": "https://t.me/+rFlmNBHXkDg5MjRk", "lat": 45.846, "lon": 1.274, "level": "departmental" },
    { "department": "OCCITANIE", "city": "Occitanie", "name": "Groupe Telegram Occitanie", "link": "https://t.me/collectifsunis31", "lat": 43.6, "lon": 1.44, "level": "regional" },
    { "department": "12 Aveyron", "city": "Aveyron", "name": "Groupe Telegram D√©partement 12", "link": "https://t.me/+q3dsx7KFvWI4Yjk0", "lat": 44.365, "lon": 2.584, "level": "departmental" },
    { "department": "OUTRE MER", "city": "Outre-Mer", "name": "Groupe Telegram Outre-Mer", "link": "https://t.me/+k6w3Bdy4Nr81MzQ8", "lat": 14.6, "lon": -61.07, "level": "regional" },
    { "department": "973 Guyane", "city": "Guyane", "name": "Groupe Telegram Guyane", "link": "https://t.me/+BZyC3CpGCIZhY2Q0", "lat": 4.948, "lon": -52.32, "level": "departmental" },
    { "department": "974 La Reunion", "city": "La R√©union", "name": "Groupe Telegram La R√©union", "link": "https://t.me/+l81KX9i3Z39hZWU", "lat": -20.895, "lon": 55.463, "level": "departmental" },
    { "department": "972 Martinique", "city": "Martinique", "name": "Groupe Telegram Martinique", "link": "https://t.me/+-G6drNd53xQwYTI0", "lat": 14.621, "lon": -61.086, "level": "departmental" },
    { "department": "Outre-Mer", "city": "Ultramarins", "name": "Groupe Telegram Ultramarins", "link": "https://t.me/+nKqjGihlVlM5ZDBk", "lat": 16.015, "lon": -61.692, "level": "regional" },
    { "department": "PACA", "city": "PACA", "name": "Groupe Telegram PACA", "link": "https://t.me/+6nGU1MKqF1E1MTI0", "lat": 43.7, "lon": 6.8, "level": "regional" },
    { "department": "PAYS DE LA LOIRE", "city": "Pays de la Loire", "name": "Groupe Telegram Pays de la Loire", "link": "https://t.me/+UlH4Zr3yf5FjMmRk", "lat": 47.4, "lon": -0.8, "level": "regional" },
    { "department": "44 Loire Atlantique", "city": "Loire-Atlantique", "name": "Groupe Telegram D√©partement 44", "link": "https://t.me/+sKVR6vGagq82OTA0", "lat": 47.231, "lon": -1.541, "level": "departmental" },
    { "department": "44 Loire Atlantique", "city": "l'√Æle de Nantes", "name": "Groupe Telegram l'√Æle de Nantes", "link": "https://t.me/+4Hml85LTV8c1ZjA0", "lat": 47.202, "lon": -1.554, "level": "communal" },
    { "department": "44 Loire Atlantique", "city": "Nantes Agglom√©ration", "name": "Groupe Telegram Nantes Agglom√©ration", "link": "https://t.me/+FVgpAoiS7-IzMTA0", "lat": 47.228, "lon": -1.544, "level": "communal" },
    { "department": "44 Loire Atlantique", "city": "Nantes Nord", "name": "Groupe Telegram Nantes Nord", "link": "https://t.me/+pXKibPlTgwFkNzBk", "lat": 47.241, "lon": -1.556, "level": "communal" },
    { "department": "44 Loire Atlantique", "city": "Malakoff st Donatien", "name": "Groupe Telegram Malakoff st Donatien", "link": "https://t.me/+nKqjGihlVlM5ZDBk", "lat": 47.215, "lon": -1.531, "level": "communal" },
    { "department": "44 Loire Atlantique", "city": "Reze", "name": "Groupe Telegram Reze", "link": "https://t.me/+7ifqGHbsJ6QwMDlk", "lat": 47.185, "lon": -1.551, "level": "communal" },
    { "department": "44 Loire Atlantique", "city": "saint-Nazaire", "name": "Groupe Telegram Saint-Nazaire", "link": "https://t.me/+KtuU08JRaV4yOWI0", "lat": 47.27, "lon": -2.207, "level": "communal" },
    { "department": "49 Maine et Loire", "city": "Maine-et-Loire", "name": "Groupe Telegram D√©partement 49", "link": "https://t.me/+sH1EnfLBhMY4M2M0", "lat": 47.491, "lon": -0.556, "level": "departmental" },
    { "department": "53 Mayenne", "city": "Mayenne", "name": "Groupe Telegram D√©partement 53", "link": "https://t.me/+a8Tv2s6foOxhNzE0", "lat": 48.083, "lon": -0.765, "level": "departmental" },
    { "department": "72 Sarthe", "city": "Sarthe", "name": "Groupe Telegram D√©partement 72", "link": "https://t.me/+hh9tPqdATphiZjE8", "lat": 48.020, "lon": 0.211, "level": "departmental" },
    { "department": "85 Vend√©e", "city": "Vend√©e", "name": "Groupe Telegram D√©partement 85", "link": "https://t.me/vendee10S", "lat": 46.684, "lon": -1.413, "level": "departmental" }
  ],
  "cameras_points": [
    {
      "id": "1",
      "name": "Cam√©ra de la Place Mass√©na",
      "city": "Nice",
      "lat": 43.6967,
      "lon": 7.2687,
      "type": "fixed",
      "description": "Cam√©ra fixe de surveillance de la place principale",
      "video_link": "https://www.youtube.com/watch?v=F_fV3-m50-g",
      "level": "communal"
    },
    {
      "id": "2",
      "name": "Cam√©ra de Gare du Nord",
      "city": "Paris",
      "lat": 48.8790,
      "lon": 2.3551,
      "type": "dome",
      "description": "Cam√©ra d√¥me pour la surveillance √† 360¬∞ du hall",
      "video_link": "https://www.youtube.com/watch?v=F_fV3-m50-g",
      "level": "communal"
    },
    {
      "id": "3",
      "name": "Cam√©ra de l'H√¥tel de Ville",
      "city": "Lyon",
      "lat": 45.7675,
      "lon": 4.8340,
      "type": "panning",
      "description": "Cam√©ra panoramique pour surveiller la place des Terreaux",
      "video_link": "https://www.youtube.com/watch?v=F_fV3-m50-g",
      "level": "communal"
    },
    {
      "id": "4",
      "name": "Garde du Louvre",
      "city": "Paris",
      "lat": 48.8606,
      "lon": 2.3376,
      "type": "guard",
      "description": "Personnel de s√©curit√© √† l'entr√©e du mus√©e du Louvre",
      "video_link": "https://www.youtube.com/watch?v=F_fV3-m50-g",
      "level": "communal"
    },
    {
      "id": "5",
      "name": "Cam√©ra des Champs-√âlys√©es",
      "city": "Paris",
      "lat": 48.8698,
      "lon": 2.3075,
      "type": "fixed",
      "description": "Cam√©ra fixe sur l'avenue principale",
      "video_link": "https://www.youtube.com/watch?v=F_fV3-m50-g",
      "level": "communal"
    },
    {
      "id": "6",
      "name": "Cam√©ra de la Place Royale",
      "city": "Nantes",
      "lat": 47.2155,
      "lon": -1.5583,
      "type": "dome",
      "description": "Surveillance de la fontaine et de l'espace public",
      "video_link": "https://www.youtube.com/watch?v=F_fV3-m50-g",
      "level": "communal"
    },
    {
      "id": "7",
      "name": "Cam√©ra de la Place de la Bourse",
      "city": "Bordeaux",
      "lat": 44.8413,
      "lon": -0.5670,
      "type": "panning",
      "description": "Cam√©ra surveillant le miroir d'eau",
      "video_link": "https://www.youtube.com/watch?v=F_fV3-m50-g",
      "level": "communal"
    },
    {
      "id": "8",
      "name": "Cam√©ra d'A√©roport Roissy-CDG",
      "city": "Roissy-en-France",
      "lat": 49.0097,
      "lon": 2.5479,
      "type": "dome",
      "description": "Surveillance de l'int√©rieur du Terminal 1",
      "video_link": "https://www.youtube.com/watch?v=F_fV3-m50-g",
      "level": "national"
    },
    {
      "id": "9",
      "name": "Cam√©ra du Ch√¢teau de Versailles",
      "city": "Versailles",
      "lat": 48.8048,
      "lon": 2.1203,
      "type": "fixed",
      "description": "Cam√©ra de s√©curit√© dans les jardins du ch√¢teau",
      "video_link": "https://www.youtube.com/watch?v=F_fV3-m50-g",
      "level": "communal"
    },
    {
      "id": "10",
      "name": "Cam√©ra de la Gare de Lyon",
      "city": "Lyon",
      "lat": 45.7592,
      "lon": 4.8327,
      "type": "fixed",
      "description": "Cam√©ra fixe sur le quai",
      "video_link": "https://www.youtube.com/watch?v=F_fV3-m50-g",
      "level": "communal"
    },
    {
      "id": "11",
      "name": "Cam√©ra de la Place de la Com√©die",
      "city": "Montpellier",
      "lat": 43.6083,
      "lon": 3.8797,
      "type": "dome",
      "description": "Surveillance du c≈ìur historique de la ville",
      "video_link": "https://www.youtube.com/watch?v=F_fV3-m50-g",
      "level": "communal"
    },
    {
      "id": "12",
      "name": "Cam√©ra de la Gare Saint-Jean",
      "city": "Bordeaux",
      "lat": 44.8252,
      "lon": -0.5562,
      "type": "panning",
      "description": "Cam√©ra pour la surveillance des quais et voies",
      "video_link": "https://www.youtube.com/watch?v=F_fV3-m50-g",
      "level": "communal"
    },
    {
      "id": "13",
      "name": "Cam√©ra du March√© de No√´l",
      "city": "Strasbourg",
      "lat": 48.5828,
      "lon": 7.7450,
      "type": "fixed",
      "description": "Cam√©ra saisonni√®re sur la place de la Cath√©drale",
      "video_link": "https://www.youtube.com/watch?v=F_fV3-m50-g",
      "level": "communal"
    },
    {
      "id": "14",
      "name": "Cam√©ra du centre commercial Parly 2",
      "city": "Le Chesnay-Rocquencourt",
      "lat": 48.8236,
      "lon": 2.1154,
      "type": "dome",
      "description": "Cam√©ra d√¥me √† l'int√©rieur du centre commercial",
      "video_link": "https://www.youtube.com/watch?v=F_fV3-m50-g",
      "level": "communal"
    },
    {
      "id": "15",
      "name": "Cam√©ra du stade V√©lodrome",
      "city": "Marseille",
      "lat": 43.2698,
      "lon": 5.3957,
      "type": "fixed",
      "description": "Surveillance des tribunes et des entr√©es du stade",
      "video_link": "https://www.youtube.com/shorts/xYTDkwZnikE",
      "level": "communal"
    },
    {
      "id": "16",
      "name": "Cam√©ra de l'a√©roport de Nice",
      "city": "Nice",
      "lat": 43.6653,
      "lon": 7.2078,
      "type": "panning",
      "description": "Cam√©ra surveillant les pistes de l'a√©roport",
      "video_link": "https://www.youtube.com/watch?v=F_fV3-m50-g",
      "level": "national"
    },
    {
      "id": "17",
      "name": "Cam√©ra du m√©tro Bellecour",
      "city": "Lyon",
      "lat": 45.7578,
      "lon": 4.8329,
      "type": "fixed",
      "description": "Cam√©ra de s√©curit√© dans le m√©tro",
      "video_link": "https://www.youtube.com/watch?v=F_fV3-m50-g",
      "level": "communal"
    },
    {
      "id": "18",
      "name": "Cam√©ra de la Place du Capitole",
      "city": "Toulouse",
      "lat": 43.6044,
      "lon": 1.4442,
      "type": "dome",
      "description": "Surveillance √† 360¬∞ de la place principale",
      "video_link": "https://www.youtube.com/watch?v=F_fV3-m50-g",
      "level": "communal"
    },
    {
      "id": "19",
      "name": "Cam√©ra de la Gare de l'Est",
      "city": "Paris",
      "lat": 48.8763,
      "lon": 2.3582,
      "type": "panning",
      "description": "Cam√©ra mobile pour les quais de la gare",
      "video_link": "https://www.youtube.com/watch?v=F_fV3-m50-g",
      "level": "communal"
    },
    {
      "id": "20",
      "name": "Cam√©ra du centre commercial La Part-Dieu",
      "city": "Lyon",
      "lat": 45.7601,
      "lon": 4.8550,
      "type": "dome",
      "description": "Cam√©ra d√¥me √† l'int√©rieur du centre commercial",
      "video_link": "https://www.youtube.com/watch?v=F_fV3-m50-g",
      "level": "communal"
    },
    {
      "id": "21",
      "name": "Cam√©ra du Vieux-Lille",
      "city": "Lille",
      "lat": 50.6402,
      "lon": 3.0631,
      "type": "fixed",
      "description": "Cam√©ra fixe de rue dans le quartier historique",
      "video_link": "https://www.youtube.com/watch?v=F_fV3-m50-g",
      "level": "communal"
    },
    {
      "id": "22",
      "name": "Cam√©ra du March√© des Lices",
      "city": "Rennes",
      "lat": 48.1130,
      "lon": -1.6841,
      "type": "dome",
      "description": "Cam√©ra d√¥me de surveillance du march√©",
      "video_link": "https://www.youtube.com/watch?v=F_fV3-m50-g",
      "level": "communal"
    },
    {
      "id": "23",
      "name": "Cam√©ra du centre commercial Euralille",
      "city": "Lille",
      "lat": 50.6385,
      "lon": 3.0683,
      "type": "fixed",
      "description": "Surveillance des acc√®s au centre commercial",
      "video_link": "https://www.youtube.com/watch?v=F_fV3-m50-g",
      "level": "communal"
    },
    {
      "id": "24",
      "name": "Cam√©ra de l'Op√©ra de Lille",
      "city": "Lille",
      "lat": 50.6385,
      "lon": 3.0642,
      "type": "fixed",
      "description": "Cam√©ra de surveillance de la rue Faidherbe",
      "video_link": "https://www.youtube.com/watch?v=F_fV3-m50-g",
      "level": "communal"
    },
    {
      "id": "25",
      "name": "Cam√©ra du Z√©nith de Strasbourg",
      "city": "Eckbolsheim",
      "lat": 48.5839,
      "lon": 7.6896,
      "type": "dome",
      "description": "Cam√©ra d√¥me pour la surveillance des abords du Z√©nith",
      "video_link": "https://www.youtube.com/watch?v=F_fV3-m50-g",
      "level": "communal"
    }
  ],
  "caisse_manifestation": {
    "solde": 0,
    "transactions": []
  },
  "blockchain": {
    "transactions": []
  },
  "beneficiaries": [],
  "cv_contracts": [],
  "polls": [],
  "organizers": [],
  "manifestation_points": [
    { "city": "Caen", "lat": 49.183333, "lon": -0.350000, "count": 6000, "video_link": "https://www.youtube.com/watch?v=pAWZXhCAeeM", "source": "Rapport local", "level": "communal" },
    { "city": "Rennes", "lat": 48.11197912, "lon": -1.68186449, "count": 15000, "video_link": null, "source": "Rapport local", "level": "communal" },
    { "city": "Grenoble", "lat": 45.185, "lon": 5.725, "count": 30000, "video_link": "https://www.youtube.com/watch?v=ZvUkt9Y2uKk", "source": "Divers", "level": "communal" },
    { "city": "Paris", "lat": 48.8679, "lon": 2.3582, "count": "Plusieurs milliers", "video_link": "https://www.youtube.com/watch?v=ZvUkt9Y2uKk", "strategic_location": "Place de la R√©publique", "note": "R√©f√©rence num√©rique 910", "source": "M√©dia", "level": "national" },
    { "city": "Marseille", "lat": 43.2961, "lon": 5.3699, "count": "Plusieurs milliers", "video_link": "https://www.youtube.com/watch?v=XpdhTarPyac", "source": "Vid√©o YouTube", "level": "communal" },
    { "city": "Saint-Malo", "lat": 48.6493, "lon": -2.0076, "count": 170, "video_link": null, "source": "M√©dia local", "level": "communal" },
    { "city": "Foug√®res", "lat": 48.3519, "lon": -1.205, "count": 380, "video_link": null, "source": "M√©dia local", "level": "communal" },
    { "city": "Valenciennes", "lat": 50.356, "lon": 3.523, "count": { "CGT": 1500, "Police": 700 }, "source": "Rapports syndicaux et policiers", "level": "communal" },
    { "city": "Nantes", "lat": 47.2186, "lon": -1.5541, "count": 200, "source": "M√©dia local", "level": "communal" },
    { "city": "Tours", "lat": 47.3941, "lon": 0.6848, "count": "500", "video_link": "https://www.youtube.com/watch?v=Otqa3o64fbw", "source": "Vid√©o YouTube", "level": "communal" },
    { "city": "Amiens", "lat": 49.896546, "lon": 2.311214, "count": "Police: 6500, Syndicats: 8000", "video_link": "https://www.youtube.com/watch?v=5FZqRpcMRuk", "source": "France 3 Hauts-de-France", "level": "communal" },
    { "city": "Lille", "lat": 50.6212, "lon": 3.0448, "count": 3000, "video_link": "https://www.youtube.com/shorts/i3G5dqi520w", "source": "RCF Hauts-de-France", "level": "communal" },
    { "city": "Rouen", "lat": 49.44, "lon": 1.09, "count": "√Ä rechercher", "video_link": "https://www.youtube.com/watch?v=5FZqRpcMRuk", "source": null, "level": "communal" },
    { "city": "Le Havre", "lat": 49.4959, "lon": 0.1311, "count": 20000, "video_link": "https://www.youtube.com/watch?v=5FZqRpcMRuk", "source": "CGT", "level": "communal" },
    { "city": "Bordeaux", "lat": 44.84151, "lon": -0.56997, "count": "√Ä rechercher", "video_link": "https://www.youtube.com/watch?v=5FZqRpcMRuk", "source": null, "level": "communal" },
    { "city": "Poitiers", "lat": 46.58013, "lon": 0.34423, "count": 250, "video_link": "https://www.youtube.com/watch?v=5FZqRpcMRuk", "source": "Le7.info", "level": "communal" },
    { "city": "La Rochelle", "lat": 46.166667, "lon": -1.150000, "count": "Plus de 1500", "video_link": "https://www.youtube.com/watch?v=5FZqRpcMRuk", "source": "YouTube", "level": "communal" },
    { "city": "Foix", "lat": 42.966667, "lon": 1.600000, "count": 8000, "video_link": "https://www.youtube.com/watch?v=5FZqRpcMRuk", "source": "Orange Actu", "level": "communal" },
    { "city": "La Fare-les-Oliviers", "lat": 43.551666, "lon": 5.194722, "count": "√Ä rechercher", "video_link": "https://www.youtube.com/watch?v=5FZqRpcMRuk", "source": null, "level": "local" },
    { "city": "Toulon", "lat": 43.1368, "lon": 5.9336, "count": "√Ä rechercher", "video_link": "https://www.youtube.com/watch?v=5FZqRpcMRuk", "source": null, "level": "communal" },
    { "city": "Albertville", "lat": 45.675535, "lon": 6.392726, "count": 1500, "video_link": "https://www.youtube.com/watch?v=5FZqRpcMRuk", "source": "YouTube", "level": "communal" },
    { "city": "Villeurbanne", "lat": 45.7725, "lon": 4.8966, "count": "Environ 70", "video_link": "https://www.youtube.com/watch?v=5FZqRpcMRuk", "source": "YouTube", "level": "communal" },
    { "city": "Annecy", "lat": 45.8992348, "lon": 6.1288847, "count": "Plusieurs milliers", "video_link": "https://www.youtube.com/watch?v=5FZqRpcMRuk", "source": "YouTube", "level": "communal" },
    { "city": "Cr√©teil", "lat": 48.790367, "lon": 2.455572, "count": "√Ä rechercher", "video_link": "https://www.youtube.com/watch?v=5FZqRpcMRuk", "source": null, "level": "communal" },
    { "city": "Strasbourg", "lat": 48.58406, "lon": 7.75871, "count": "Police: 9500, Organisateurs: 30000", "video_link": "https://www.youtube.com/shorts/TRLPkMeydSk", "source": "Parlement Europ√©en", "level": "communal" },
    { "city": "Reims", "lat": 49.23, "lon": 4.062, "count": "√Ä rechercher", "video_link": "https://www.youtube.com/watch?v=5FZqRpcMRuk", "source": null, "level": "communal" },
    { "city": "Arbois", "lat": 46.902851, "lon": 5.772342, "count": "Environ 60", "video_link": "https://www.youtube.com/watch?v=5FZqRpcMRuk", "source": "Trente Neuf Degr√©s", "level": "communal" },
    { "city": "B√©thune", "lat": 50.531842, "lon": 2.637715, "count": 100, "video_link": "https://www.youtube.com/watch?v=5FZqRpcMRuk", "source": "Calais La Sociale", "level": "communal" },
    { "city": "Beauvais", "lat": 49.4333, "lon": 2.0833, "count": "√Ä rechercher", "video_link": "https://www.youtube.com/watch?v=5FZqRpcMRuk", "source": null, "level": "communal" },
    { "city": "Tonneins", "lat": 44.389722, "lon": 0.308333, "count": "Environ 3000", "video_link": "https://www.youtube.com/watch?v=5FZqRpcMRuk", "source": "Dailymotion", "level": "communal" },
    { "city": "Vienne", "lat": 45.526167, "lon": 4.875277, "count": "√Ä rechercher", "video_link": "https://www.youtube.com/watch?v=5FZqRpcMRuk", "source": null, "level": "communal" },
    { "city": "Toulouse", "lat": 43.6045, "lon": 1.4442, "count": "√Ä rechercher", "video_link": "https://www.youtube.com/shorts/8wR4VZF5UpQ", "source": "AES TV", "level": "communal" },
    { "city": "Pau", "lat": 43.2951, "lon": -0.370797, "count": "2500", "video_link": "https://www.youtube.com/watch?v=xwTfADirufs", "source": "youtube", "level": "communal" },
    { "city": "Plo√´rmel", "lat": 47.929286, "lon": -2.396499, "count": "500", "video_link": "https://www.youtube.com/watch?v=K9-l_Aqf3Hw", "source": "Les Infos du Pays Gallo", "level": "communal" },
    { "city": "Dublin", "country": "Irlande", "name": "Ambassade de France", "lat": 53.338706, "lon": -6.249520, "count": "1 000 000", "video_link": "https://www.youtube.com/shorts/4ecsRbPunEk", "level": "europe" },
    { "city": "Madrid", "country": "Espagne", "lat": 40.416775, "lon": -3.703790, "count": "Milliers", "source": "Divers m√©dias espagnols", "level": "europe" },
    { "city": "Bruxelles", "country": "Belgique", "lat": 50.850346, "lon": 4.351721, "count": "Donn√©es √† v√©rifier", "source": "Non confirm√©e pour cette date","video_link": "https://www.youtube.com/shorts/BB4yltCWAFU,https://www.youtube.com/shorts/9fyJzxQ879k", "level": "europe" },
    { "city": "Berlin", "country": "Allemagne", "lat": 52.520008, "lon": 13.404954, "count": "Donn√©es √† v√©rifier", "source": "Non confirm√©e pour cette date", "level": "europe" }
  ],
  "strategic_locations": [
    { "name": "H√¥pital Lariboisi√®re", "city": "Paris", "type": "H√¥pital", "lat": 48.882, "lon": 2.355, "level": "communal" },
    { "name": "Universit√© de la Sorbonne", "city": "Paris", "type": "Universit√©", "lat": 48.846, "lon": 2.345, "level": "communal" },
    { "name": "CHU de Rennes", "city": "Rennes", "type": "H√¥pital", "lat": 48.114, "lon": -1.691, "level": "communal" },
    { "name": "Universit√© de Rennes 1", "city": "Rennes", "type": "Universit√©", "lat": 48.116, "lon": -1.680, "level": "communal" },
    { "name": "H√¥pital Michallon", "city": "Grenoble", "type": "H√¥pital", "lat": 45.189, "lon": 5.722, "level": "communal" },
    { "name": "Universit√© Grenoble Alpes", "city": "Grenoble", "type": "Universit√©", "lat": 45.204, "lon": 5.768, "level": "communal" }
  ],
  "roundabout_points": [
    { "name": "Rond-point de la Patte d'Oie", "city": "Amiens", "lat": 49.885, "lon": 2.298, "count": "√Ä rechercher", "type": "Rond-point de Blocage", "level": "communal" },
    { "name": "Rond-point des Quatre-Vents", "city": "Cr√©teil", "lat": 48.784, "lon": 2.459, "count": "√Ä rechercher", "type": "Rond-point de Blocage", "level": "communal" },
    { "name": "Rond-point du Val d'Auron", "city": "Bourges", "lat": 47.069, "lon": 2.408, "count": "√Ä rechercher", "type": "Rond-point de Blocage", "level": "communal" },
    { "name": "Rond-point de Castorama", "city": "Caen", "lat": 49.1764, "lon": -0.3168, "count": "√Ä rechercher", "type": "Rond-point de Blocage","video_link": "https://www.youtube.com/watch?v=pAWZXhCAeeM", "level": "communal" }

  ],
  "porte_points": [
    { "name": "Porte de Bagnolet", "city": "Paris", "lat": 48.8631, "lon": 2.4045, "count": "X", "type": "Porte de Paris","video_link": "https://www.youtube.com/watch?v=pAWZXhCAeeM", "level": "communal" },
    { "name": "Porte d'Aubervilliers", "city": "Paris", "lat": 48.8988, "lon": 2.3739, "count": "√Ä rechercher", "type": "Porte de Paris", "level": "communal" },
    { "name": "Porte de Clignancourt", "city": "Paris", "lat": 48.8985, "lon": 2.3481, "count": "√Ä rechercher", "type": "Porte de Paris", "level": "communal" },
    { "name": "Porte de Montreuil", "city": "Paris", "lat": 48.8559, "lon": 2.4172, "count": "√Ä rechercher", "type": "Porte de Paris", "level": "communal" },
    { "name": "Porte de Vincennes", "city": "Paris", "lat": 48.8475, "lon": 2.4191, "count": "√Ä rechercher", "type": "Porte de Paris", "level": "communal" },
    { "name": "Gare du Nord", "city": "Paris", "lat": 48.88092, "lon": 2.35515, "count": "√Ä rechercher", "type": "Porte de Paris", "level": "communal" }
  ],
  "mairies": [
    { "name": "Mairie de Bourg-en-Bresse", "city": "Bourg-en-Bresse", "lat": 46.2057, "lon": 5.2289, "department": "01 Ain", "level": "communal" },
    { "name": "Mairie de Laon", "city": "Laon", "lat": 49.5638, "lon": 3.6262, "department": "02 Aisne", "level": "communal" },
    { "name": "Mairie de Moulins", "city": "Moulins", "lat": 46.5658, "lon": 3.3323, "department": "03 Allier", "level": "communal" },
    { "name": "Mairie de Digne-les-Bains", "city": "Digne-les-Bains", "lat": 44.0924, "lon": 6.2346, "department": "04 Alpes de Haute Provence", "level": "communal" },
    { "name": "Mairie de Gap", "city": "Gap", "lat": 44.5615, "lon": 6.0792, "department": "05 Hautes Alpes", "level": "communal" },
    { "name": "Mairie de Nice", "city": "Nice", "lat": 43.7009, "lon": 7.2625, "department": "06 Alpes Maritimes", "level": "communal" },
    { "name": "Mairie de Privas", "city": "Privas", "lat": 44.737, "lon": 4.598, "department": "07 Ard√®che", "level": "communal" },
    { "name": "Mairie de Charleville-M√©zi√®res", "city": "Charleville-M√©zi√®res", "lat": 49.7766, "lon": 4.7265, "department": "08 Ardennes", "level": "communal" },
    { "name": "Mairie de Foix", "city": "Foix", "lat": 42.9634, "lon": 1.6083, "department": "09 Ari√®ge", "level": "communal" },
    { "name": "Mairie de Troyes", "city": "Troyes", "lat": 48.2974, "lon": 4.0746, "department": "10 Aube", "level": "communal" },
    { "name": "Mairie de Carcassonne", "city": "Carcassonne", "lat": 43.2104, "lon": 2.3486, "department": "11 Aude", "level": "communal" },
    { "name": "Mairie de Rodez", "city": "Rodez", "lat": 44.3524, "lon": 2.5714, "department": "12 Aveyron", "level": "communal" },
    { "name": "Mairie de Marseille", "city": "Marseille", "lat": 43.2961, "lon": 5.3699, "department": "13 Bouches du Rh√¥ne", "level": "communal" },
    { "name": "Mairie de Caen", "city": "Caen", "lat": 49.182, "lon": -0.3705, "department": "14 Calvados", "level": "communal" },
    { "name": "Mairie d'Aurillac", "city": "Aurillac", "lat": 44.9221, "lon": 2.4439, "department": "15 Cantal", "level": "communal" },
    { "name": "Mairie d'Angoul√™me", "city": "Angoul√™me", "lat": 45.6486, "lon": 0.156, "department": "16 Charente", "level": "communal" },
    { "name": "Mairie de La Rochelle", "city": "La Rochelle", "lat": 46.1603, "lon": -1.1511, "department": "17 Charente Maritime", "level": "communal" },
    { "name": "Mairie de Bourges", "city": "Bourges", "lat": 47.0842, "lon": 2.3965, "department": "18 Cher", "level": "communal" },
    { "name": "Mairie de Tulle", "city": "Tulle", "lat": 45.2662, "lon": 1.7712, "department": "19 Corr√®ze", "level": "communal" },
    { "name": "Mairie d'Ajaccio", "city": "Ajaccio", "lat": 41.9205, "lon": 8.7397, "department": "2a Corse du Sud", "level": "communal" },
    { "name": "Mairie de Bastia", "city": "Bastia", "lat": 42.7011, "lon": 9.4507, "department": "2b Haute Corse", "level": "communal" },
    { "name": "Mairie de Dijon", "city": "Dijon", "lat": 47.3222, "lon": 5.043, "department": "21 C√¥te d'Or", "level": "communal" },
    { "name": "Mairie de Saint-Brieuc", "city": "Saint-Brieuc", "lat": 48.5135, "lon": -2.766, "department": "22 C√¥tes d'Armor", "level": "communal" },
    { "name": "Mairie de Gu√©ret", "city": "Gu√©ret", "lat": 46.1706, "lon": 1.871, "department": "23 Creuse", "level": "communal" },
    { "name": "Mairie de P√©rigueux", "city": "P√©rigueux", "lat": 45.1843, "lon": 0.7208, "department": "24 Dordogne", "level": "communal" },
    { "name": "Mairie de Besan√ßon", "city": "Besan√ßon", "lat": 47.2378, "lon": 6.0245, "department": "25 Doubs", "level": "communal" },
    { "name": "Mairie de Valence", "city": "Valence", "lat": 44.9333, "lon": 4.8917, "department": "26 Dr√¥me", "level": "communal" },
    { "name": "Mairie d'√âvreux", "city": "√âvreux", "lat": 49.0234, "lon": 1.1504, "department": "27 Eure", "level": "communal" },
    { "name": "Mairie de Chartres", "city": "Chartres", "lat": 48.4475, "lon": 1.4883, "department": "28 Eure et Loir", "level": "communal" },
    { "name": "Mairie de Quimper", "city": "Quimper", "lat": 47.9943, "lon": -4.1039, "department": "29 Finist√®re", "level": "communal" },
    { "name": "Mairie de N√Æmes", "city": "N√Æmes", "lat": 43.8368, "lon": 4.3601, "department": "30 Gard", "level": "communal" },
    { "name": "Mairie de Toulouse", "city": "Toulouse", "lat": 43.6045, "lon": 1.4442, "department": "31 Haute Garonne", "level": "communal" },
    { "name": "Mairie d'Auch", "city": "Auch", "lat": 43.6465, "lon": 0.5853, "department": "32 Gers", "level": "communal" },
    { "name": "Mairie de Bordeaux", "city": "Bordeaux", "lat": 44.8378, "lon": -0.5792, "department": "33 Gironde", "level": "communal" },
    { "name": "Mairie de Montpellier", "city": "Montpellier", "lat": 43.6108, "lon": 3.8767, "department": "34 H√©rault", "level": "communal" },
    { "name": "Mairie de Rennes", "city": "Rennes", "lat": 48.1173, "lon": -1.6778, "department": "35 Ille et Vilaine", "level": "communal" },
    { "name": "Mairie de Ch√¢teauroux", "city": "Ch√¢teauroux", "lat": 46.8066, "lon": 1.6917, "department": "36 Indre", "level": "communal" },
    { "name": "Mairie de Tours", "city": "Tours", "lat": 47.3941, "lon": 0.6848, "department": "37 Indre et Loire", "level": "communal" },
    { "name": "Mairie de Grenoble", "city": "Grenoble", "lat": 45.1885, "lon": 5.7245, "department": "38 Is√®re", "level": "communal" },
    { "name": "Mairie de Lons-le-Saunier", "city": "Lons-le-Saunier", "lat": 46.6713, "lon": 5.556, "department": "39 Jura", "level": "communal" },
    { "name": "Mairie de Mont-de-Marsan", "city": "Mont-de-Marsan", "lat": 43.891, "lon": -0.5005, "department": "40 Landes", "level": "communal" },
    { "name": "Mairie de Blois", "city": "Blois", "lat": 47.585, "lon": 1.332, "department": "41 Loir et Cher", "level": "communal" },
    { "name": "Mairie de Saint-√âtienne", "city": "Saint-√âtienne", "lat": 45.4397, "lon": 4.3872, "department": "42 Loire", "level": "communal" },
    { "name": "Mairie de Le Puy-en-Velay", "city": "Le Puy-en-Velay", "lat": 45.0433, "lon": 3.8852, "department": "43 Haute Loire", "level": "communal" },
    { "name": "Mairie de Nantes", "city": "Nantes", "lat": 47.2186, "lon": -1.5541, "department": "44 Loire Atlantique", "level": "communal" },
    { "name": "Mairie d'Orl√©ans", "city": "Orl√©ans", "lat": 47.9029, "lon": 1.909, "department": "45 Loiret", "level": "communal" },
    { "name": "Mairie de Cahors", "city": "Cahors", "lat": 44.4475, "lon": 1.442, "department": "46 Lot", "level": "communal" },
    { "name": "Mairie d'Agen", "city": "Agen", "lat": 44.2045, "lon": 0.6133, "department": "47 Lot et Garonne", "level": "communal" },
    { "name": "Mairie de Mende", "city": "Mende", "lat": 44.5167, "lon": 3.5, "department": "48 Loz√®re", "level": "communal" },
    { "name": "Mairie d'Angers", "city": "Angers", "lat": 47.4784, "lon": -0.5632, "department": "49 Maine et Loire", "level": "communal" },
    { "name": "Mairie de Saint-L√¥", "city": "Saint-L√¥", "lat": 49.1171, "lon": -1.087, "department": "50 Manche", "level": "communal" },
    { "name": "Mairie de Ch√¢lons-en-Champagne", "city": "Ch√¢lons-en-Champagne", "lat": 48.9567, "lon": 4.3725, "department": "51 Marne", "level": "communal" },
    { "name": "Mairie de Chaumont", "city": "Chaumont", "lat": 48.107, "lon": 5.136, "department": "52 Haute Marne", "level": "communal" },
    { "name": "Mairie de Laval", "city": "Laval", "lat": 48.0706, "lon": -0.7725, "department": "53 Mayenne", "level": "communal" },
    { "name": "Mairie de Nancy", "city": "Nancy", "lat": 48.6936, "lon": 6.1843, "department": "54 Meurthe et Moselle", "level": "communal" },
    { "name": "Mairie de Bar-le-Duc", "city": "Bar-le-Duc", "lat": 48.7714, "lon": 5.1633, "department": "55 Meuse", "level": "communal" },
    { "name": "Mairie de Vannes", "city": "Vannes", "lat": 47.6586, "lon": -2.7603, "department": "56 Morbihan", "level": "communal" },
    { "name": "Mairie de Metz", "city": "Metz", "lat": 49.1193, "lon": 6.175, "department": "57 Moselle", "level": "communal" },
    { "name": "Mairie de Nevers", "city": "Nevers", "lat": 46.992, "lon": 3.161, "department": "58 Ni√®vre", "level": "communal" },
    { "name": "Mairie de Lille", "city": "Lille", "lat": 50.6292, "lon": 3.0573, "department": "59 Nord", "level": "communal" },
    { "name": "Mairie de Beauvais", "city": "Beauvais", "lat": 49.4316, "lon": 2.0945, "department": "60 Oise", "level": "communal" },
    { "name": "Mairie d'Alen√ßon", "city": "Alen√ßon", "lat": 48.431, "lon": 0.091, "department": "61 Orne", "level": "communal" },
    { "name": "Mairie d'Arras", "city": "Arras", "lat": 50.2926, "lon": 2.7825, "department": "62 Pas de Calais", "level": "communal" },
    { "name": "Mairie de Clermont-Ferrand", "city": "Clermont-Ferrand", "lat": 45.7772, "lon": 3.087, "department": "63 Puy de D√¥me", "level": "communal" },
    { "name": "Mairie de Pau", "city": "Pau", "lat": 43.3006, "lon": -0.3662, "department": "64 Pyr√©n√©es Atlantiques", "level": "communal" },
    { "name": "Mairie de Tarbes", "city": "Tarbes", "lat": 43.2323, "lon": 0.0768, "department": "65 Hautes Pyr√©n√©es", "level": "communal" },
    { "name": "Mairie de Perpignan", "city": "Perpignan", "lat": 42.6888, "lon": 2.8948, "department": "66 Pyr√©n√©es Orientales", "level": "communal" },
    { "name": "Mairie de Strasbourg", "city": "Strasbourg", "lat": 48.5839, "lon": 7.7455, "department": "67 Bas Rhin", "level": "communal" },
    { "name": "Mairie de Colmar", "city": "Colmar", "lat": 48.0792, "lon": 7.3592, "department": "68 Haut Rhin", "level": "communal" },
    { "name": "Mairie de Lyon", "city": "Lyon", "lat": 45.764, "lon": 4.8357, "department": "69 Rh√¥ne", "level": "communal" },
    { "name": "Mairie de Vesoul", "city": "Vesoul", "lat": 47.625, "lon": 6.155, "department": "70 Haute Sa√¥ne", "level": "communal" },
    { "name": "Mairie de M√¢con", "city": "M√¢con", "lat": 46.306, "lon": 4.832, "department": "71 Sa√¥ne et Loire", "level": "communal" },
    { "name": "Mairie de Le Mans", "city": "Le Mans", "lat": 48.0077, "lon": 0.1983, "department": "72 Sarthe", "level": "communal" },
    { "name": "Mairie de Chamb√©ry", "city": "Chamb√©ry", "lat": 45.5645, "lon": 5.9178, "department": "73 Savoie", "level": "communal" },
    { "name": "Mairie d'Annecy", "city": "Annecy", "lat": 45.8992, "lon": 6.1294, "department": "74 Haute Savoie", "level": "communal" },
    { "name": "Mairie de Paris", "city": "Paris", "lat": 48.8566, "lon": 2.3522, "department": "75 Paris", "level": "communal" },
    { "name": "Mairie de Rouen", "city": "Rouen", "lat": 49.4432, "lon": 1.0994, "department": "76 Seine Maritime", "level": "communal" },
    { "name": "Mairie de Melun", "city": "Melun", "lat": 48.539, "lon": 2.654, "department": "77 Seine et Marne", "level": "communal" },
    { "name": "Mairie de Versailles", "city": "Versailles", "lat": 48.8014, "lon": 2.1301, "department": "78 Yvelines", "level": "communal" },
    { "name": "Mairie de Niort", "city": "Niort", "lat": 46.3243, "lon": -0.4632, "department": "79 Deux S√®vres", "level": "communal" },
    { "name": "Mairie d'Amiens", "city": "Amiens", "lat": 49.8941, "lon": 2.2958, "department": "80 Somme", "level": "communal" },
    { "name": "Mairie d'Albi", "city": "Albi", "lat": 43.9298, "lon": 2.1432, "department": "81 Tarn", "level": "communal" },
    { "name": "Mairie de Montauban", "city": "Montauban", "lat": 44.0175, "lon": 1.355, "department": "82 Tarn et Garonne", "level": "communal" },
    { "name": "Mairie de Toulon", "city": "Toulon", "lat": 43.1242, "lon": 5.928, "department": "83 Var", "level": "communal" },
    { "name": "Mairie d'Avignon", "city": "Avignon", "lat": 43.9493, "lon": 4.806, "department": "84 Vaucluse", "level": "communal" },
    { "name": "Mairie de La Roche-sur-Yon", "city": "La Roche-sur-Yon", "lat": 46.6713, "lon": -1.426, "department": "85 Vend√©e", "level": "communal" },
    { "name": "Mairie de Poitiers", "city": "Poitiers", "lat": 46.5869, "lon": 0.3664, "department": "86 Vienne", "level": "communal" },
    { "name": "Mairie de Limoges", "city": "Limoges", "lat": 45.8336, "lon": 1.2611, "department": "87 Haute Vienne", "level": "communal" },
    { "name": "Mairie d'√âpinal", "city": "√âpinal", "lat": 48.175, "lon": 6.447, "department": "88 Vosges", "level": "communal" },
    { "name": "Mairie d'Auxerre", "city": "Auxerre", "lat": 47.7885, "lon": 3.568, "department": "89 Yonne", "level": "communal" },
    { "name": "Mairie de Belfort", "city": "Belfort", "lat": 47.6406, "lon": 6.8632, "department": "90 Territoire de Belfort", "level": "communal" },
    { "name": "Mairie d'√âvry", "city": "√âvry", "lat": 48.6299, "lon": 2.4278, "department": "91 Essonne", "level": "communal" },
    { "name": "Mairie de Nanterre", "city": "Nanterre", "lat": 48.892, "lon": 2.208, "department": "92 Hauts de Seine", "level": "communal" },
    { "name": "Mairie de Bobigny", "city": "Bobigny", "lat": 48.909, "lon": 2.445, "department": "93 Seine Saint Denis", "level": "communal" },
    { "name": "Mairie de Cr√©teil", "city": "Cr√©teil", "lat": 48.796, "lon": 2.45, "department": "94 Val de Marne", "level": "communal" },
    { "name": "Mairie de Cergy", "city": "Cergy", "lat": 49.035, "lon": 2.071, "department": "95 Val d'Oise", "level": "communal" },
    { "name": "Mairie de Basse-Terre", "city": "Basse-Terre", "lat": 16.002, "lon": -61.705, "department": "971 Guadeloupe", "level": "communal" },
    { "name": "Mairie de Fort-de-France", "city": "Fort-de-France", "lat": 14.608, "lon": -61.073, "department": "972 Martinique", "level": "communal" },
    { "name": "Mairie de Cayenne", "city": "Cayenne", "lat": 4.935, "lon": -52.333, "department": "973 Guyane", "level": "communal" },
    { "name": "Mairie de Saint-Denis", "city": "Saint-Denis", "lat": -20.882, "lon": 55.45, "department": "974 La r√©union", "level": "communal" },
    { "name": "Mairie de Saint-Pierre", "city": "Saint-Pierre", "lat": 46.786, "lon": -56.177, "department": "975 Saint Pierre et Miquelon", "level": "communal" },
    { "name": "Mairie de Mamoudzou", "city": "Mamoudzou", "lat": -12.78, "lon": 45.22, "department": "976 Mayotte", "level": "communal" },
    { "name": "Mairie de Gustavia", "city": "Gustavia", "lat": 17.895, "lon": -62.84, "department": "977 Saint Barthelemy", "level": "communal" },
    { "name": "Mairie de Marigot", "city": "Marigot", "lat": 18.067, "lon": -63.085, "department": "978 Saint Martin", "level": "communal" }
  ],
  "elysee_point": {
    "name": "Palais de l'√âlys√©e",
    "city": "Paris",
    "type": "Palais de l'√âlys√©e",
    "lat": 48.8703,
    "lon": 2.3168,
    "source": "boutique.elysee.fr",
    "level": "national"
  },
   "missions": [
    {
      "id": "1",
      "title": "Collecte de donn√©es sur le terrain",
      "description": "Relevez les positions des cam√©ras de surveillance, des mairies ou des ronds-points dans votre ville.",
      "full_description": "Cette mission vise √† cr√©er une base de donn√©es collaborative. Les participants doivent utiliser l'application pour g√©olocaliser les points strat√©giques. Ces donn√©es sont cruciales pour la cartographie des manifestations et la strat√©gie de boycott.",
      "status": "En cours",
      "rewards": "Reconnaissance sur la plateforme et points de contribution."
    },
    {
      "id": "2",
      "title": "Analyse des articles de loi",
      "description": "Examinez les modifications propos√©es aux articles L3121-1 et L4331-1 et donnez votre avis.",
      "full_description": "Nous avons besoin de l'expertise de citoyens pour examiner en d√©tail les textes de loi g√©n√©r√©s par l'IA. Votre r√¥le est de v√©rifier la pertinence et les potentielles failles juridiques. Votre analyse sera utilis√©e pour affiner notre projet de loi.",
      "status": "En cours",
      "rewards": "Acc√®s exclusif √† des webinaires juridiques et reconnaissance pour votre expertise."
    },
    {
      "id": "3",
      "title": "Cartographie des points de ralliement",
      "description": "Identifiez et enregistrez les lieux de manifestation potentiels et les voies d'acc√®s principales.",
      "full_description": "Aidez-nous √† planifier la manifestation du 10 septembre en identifiant les meilleurs lieux de rassemblement, les itin√©raires s√©curis√©s et les points de sortie. Votre contribution assure la s√©curit√© et l'efficacit√© de nos actions.",
      "status": "√Ä venir",
      "rewards": "Invitation √† la r√©union des coordinateurs locaux."
    }
  ]
}